{"demo":[{"group":312,"value":352799},{"group":313,"value":887577},{"group":314,"value":438778},{"group":315,"value":1404708},{"group":316,"value":1066334},{"group":317,"value":452327}],"population":4602523,"cutter":{"SOC":{"id":"1","name":"Social Resilience","sources":[{"id":"11","name":"Educational Equity","states":0.041,"us":0.074,"county":0.0541},{"id":"12","name":"Age","states":0.732,"us":0.721,"county":0.8911},{"id":"13","name":"Transportation Access","states":0.931,"us":0.916,"county":0.9171},{"id":"14","name":"Communication Capacity","states":0.884,"us":0.873,"county":0.8803},{"id":"15","name":"Language Capacity","states":0.722,"us":0.903,"county":0.5489},{"id":"16","name":"Special Needs","states":0.653,"us":0.657,"county":0.853},{"id":"17","name":"Health Coverage","states":0.602,"us":0.762,"county":0.5813}],"aggregate":{"us":0.700857142857143,"state":0.6521428571428572,"county":0.6751142857142857}},"ECON":{"id":"2","name":"Economic Resilience","sources":[{"id":"21","name":"Housing Capital","states":0.605,"us":0.641,"county":0.5236},{"id":"22","name":"Employment","states":0.458,"us":0.489,"county":0.5633},{"id":"23","name":"Income and Equality (GINI Coeffecient)","states":0.549,"us":0.598,"county":0.3875},{"id":"24","name":"Single Sector Employment Dependence","states":0.935,"us":0.982,"county":0.9717},{"id":"25","name":"Employment (Female)","states":0.48,"us":0.536,"county":0.644},{"id":"26","name":"Business Size","states":0.005,"us":0.007,"county":0.0158},{"id":"27","name":"Health Access","states":0.118,"us":0.125,"county":0.2175}],"aggregate":{"us":0.4825714285714286,"state":0.45,"county":0.47477142857142857}},"INST":{"id":"3","name":"Institutional Resilience","sources":[{"id":"31","name":"Mitigation - Hazard Mitigation Plan Coverage","us":null,"county":null},{"id":"32","name":"Flood Coverage","states":0.02,"us":0.014,"county":0.0841},{"id":"33","name":"Municipal Services","us":null,"county":null},{"id":"34","name":"Mitigation - CRS Flood","us":null,"county":null},{"id":"35","name":"Political Fragmentation","us":null,"county":null},{"id":"36","name":"Previous Disaster Experience","states":0.205,"us":0.211,"county":0.3385},{"id":"37","name":"Mitigation and Social Connectivity","us":null,"county":null},{"id":"38","name":"Mitigation - Storm Ready Communities","us":null,"county":null}],"aggregate":{"us":0.1125,"state":0.11249999999999999,"county":0.21130000000000002}},"IHFR":{"id":"4","name":"Infrastructure Resilience","sources":[{"id":"41","name":"Housing Type","states":0.754,"us":0.797,"county":0.9601},{"id":"42","name":"Shelter Capacity","states":0.17,"us":0.184,"county":0.585},{"id":"43","name":"Medical Capacity","states":0.005,"us":0.003,"county":0},{"id":"44","name":"Access/Evacuation Potential","states":0.006,"us":0.009,"county":0.0255},{"id":"45","name":"Housing Age","states":0.461,"us":0.459,"county":0.4776},{"id":"46","name":"Sheltering Need","states":0.001,"us":0.002,"county":0.0218},{"id":"47","name":"Recovery (Schools)","states":0.001,"us":0.003,"county":0.0131}],"aggregate":{"us":0.20814285714285716,"state":0.1997142857142857,"county":0.2975857142857143}},"COMM":{"id":"5","name":"Community Capital","sources":[{"id":"51","name":"Place Attachment - Migration","states":0.818,"us":0.912,"county":0.5086},{"id":"52","name":"Place Attachment - Born","states":0.72,"us":0.671,"county":0.4855},{"id":"53","name":"Political Engagement","states":0.313,"us":0.404,"county":0.2193},{"id":"54","name":"Social Capital - Religion","states":0.202,"us":0.186,"county":0.0707},{"id":"55","name":"Social Capital - Civic Involvement","states":0.055,"us":0.089,"county":0.0239},{"id":"56","name":"Social Capital - Advocacy","states":0.01,"us":0.016,"county":0.0071},{"id":"57","name":"Innovation","states":0.032,"us":0.034,"county":0.0635}],"aggregate":{"us":0.33028571428571424,"state":0.3071428571428571,"county":0.19694285714285714}},"FLOR":{"id":"100","name":"Special/Custom","sources":[{"id":"101","name":"Business Vulnerability","us":null,"county":null},{"id":"102","name":"Flood Zone","us":null,"county":null},{"id":"103","name":"Commuting","us":null,"county":null},{"id":"104","name":"Housing Construction","us":null,"county":null},{"id":"105","name":"Second Stage Businesses","states":0.507,"us":0.487,"county":0.6053},{"id":"106","name":"Households with Broadband Access","states":0.605,"us":0.645,"county":0.7688}],"aggregate":{"us":0.5660000000000001,"state":0.556,"county":0.6870499999999999}}},"statefips":"48","countyfips":"201","county":"Harris","state":"Texas","area":1703.478,"eda2018":[{"source_file":"2018DisasterSupp","eda_regional_office":"Austin","fain":"86905275","grantee_name":"Harris County Flood Control District","grantee_city":"Houston","grantee_state":"Texas","project_state":"Texas","grant_purpose":"Disaster Recovery and Resiliency Plan","grant_award_date":"2019-02-07T00:00:00.000Z","award_amount":320000,"total_project_funding":400000,"statewide":0,"counties":[{"county":"Harris","stateadd":"TX","statefips":"48","countyfips":"201"}],"fema_id":"4332","lat":29.8055453,"lon":-95.45246619999999},{"source_file":"2018DisasterSupp","eda_regional_office":"Austin","fain":"87905237","grantee_name":"Gulf Coast Economic Development District","grantee_city":"Houston","grantee_state":"Texas","project_state":"Texas","grant_purpose":"Disaster Recovery Coordinator","grant_award_date":"2018-06-18T00:00:00.000Z","award_amount":240000,"total_project_funding":300000,"statewide":0,"counties":[{"county":"Austin","stateadd":"TX","statefips":"48","countyfips":"015"},{"county":"Brazoria","stateadd":"TX","statefips":"48","countyfips":"039"},{"county":"Chambers","stateadd":"TX","statefips":"48","countyfips":"071"},{"county":"Colorado","stateadd":"TX","statefips":"48","countyfips":"089"},{"county":"Fort Bend","stateadd":"TX","statefips":"48","countyfips":"157"},{"county":"Galveston","stateadd":"TX","statefips":"48","countyfips":"167"},{"county":"Harris","stateadd":"TX","statefips":"48","countyfips":"201"},{"county":"Liberty","stateadd":"TX","statefips":"48","countyfips":"291"},{"county":"Matagorda","stateadd":"TX","statefips":"48","countyfips":"321"},{"county":"Montgomery","stateadd":"TX","statefips":"48","countyfips":"339"},{"county":"Walker","stateadd":"TX","statefips":"48","countyfips":"471"},{"county":"Waller","stateadd":"TX","statefips":"48","countyfips":"473"},{"county":"Wharton","stateadd":"TX","statefips":"48","countyfips":"481"}],"fema_id":"4332","lat":29.77709639999999,"lon":-95.6194773},{"source_file":"2018DisasterSupp","eda_regional_office":"Austin","fain":"87905268","grantee_name":"Hidden Star Resources","grantee_city":"Austin","grantee_state":"Texas","project_state":"Texas","grant_purpose":"Technical Assistance Program","grant_award_date":"2018-09-18T00:00:00.000Z","award_amount":600000,"total_project_funding":750000,"statewide":0,"counties":[{"county":"Austin","stateadd":"TX","statefips":"48","countyfips":"015"},{"county":"Brazoria","stateadd":"TX","statefips":"48","countyfips":"039"},{"county":"Chambers","stateadd":"TX","statefips":"48","countyfips":"071"},{"county":"Colorado","stateadd":"TX","statefips":"48","countyfips":"089"},{"county":"Fort Bend","stateadd":"TX","statefips":"48","countyfips":"157"},{"county":"Galveston","stateadd":"TX","statefips":"48","countyfips":"167"},{"county":"Harris","stateadd":"TX","statefips":"48","countyfips":"201"},{"county":"Liberty","stateadd":"TX","statefips":"48","countyfips":"291"},{"county":"Matagorda","stateadd":"TX","statefips":"48","countyfips":"321"},{"county":"Montgomery","stateadd":"TX","statefips":"48","countyfips":"339"},{"county":"Walker","stateadd":"TX","statefips":"48","countyfips":"471"},{"county":"Waller","stateadd":"TX","statefips":"48","countyfips":"473"},{"county":"Wharton","stateadd":"TX","statefips":"48","countyfips":"481"}],"fema_id":"4332","lat":30.2719882,"lon":-97.8165281},{"source_file":"2018DisasterSupp","eda_regional_office":"Austin","fain":"87905274","grantee_name":"TruFund Financial Services, Inc","grantee_city":"New York","grantee_state":"New York","project_state":"Texas","grant_purpose":"Technical Assistance Program","grant_award_date":"2019-04-01T00:00:00.000Z","award_amount":1100000,"total_project_funding":1400000,"statewide":0,"counties":[{"county":"Austin","stateadd":"TX","statefips":"48","countyfips":"015"},{"county":"Brazoria","stateadd":"TX","statefips":"48","countyfips":"039"},{"county":"Chambers","stateadd":"TX","statefips":"48","countyfips":"071"},{"county":"Ft. Bend","stateadd":"TX","statefips":"48","countyfips":"157"},{"county":"Galveston","stateadd":"TX","statefips":"48","countyfips":"167"},{"county":"Harris","stateadd":"TX","statefips":"48","countyfips":"201"},{"county":"Liberty","stateadd":"TX","statefips":"48","countyfips":"291"},{"county":"Montgomery","stateadd":"TX","statefips":"48","countyfips":"339"},{"county":"Waller","stateadd":"TX","statefips":"48","countyfips":"473"}],"fema_id":"4332","lat":40.7514177,"lon":-73.98518299999999},{"source_file":"2018DisasterSupp","eda_regional_office":"Austin","fain":"87905280","grantee_name":"Texas Tech University","grantee_city":"Lubbock","grantee_state":"Texas","project_state":"Texas","grant_purpose":"Disaster Recovery and Resiliency Plan","grant_award_date":"2019-03-21T00:00:00.000Z","award_amount":750000,"total_project_funding":937591,"statewide":0,"counties":[{"county":"Aransas","stateadd":"TX","statefips":"48","countyfips":"007"},{"county":"Austin","stateadd":"TX","statefips":"48","countyfips":"015"},{"county":"Bastrop","stateadd":"TX","statefips":"48","countyfips":"021"},{"county":"Bee","stateadd":"TX","statefips":"48","countyfips":"025"},{"county":"Brazoria","stateadd":"TX","statefips":"48","countyfips":"039"},{"county":"Caldwell","stateadd":"TX","statefips":"48","countyfips":"055"},{"county":"Calhoun","stateadd":"TX","statefips":"48","countyfips":"057"},{"county":"Chambers","stateadd":"TX","statefips":"48","countyfips":"071"},{"county":"Colorado","stateadd":"TX","statefips":"48","countyfips":"089"},{"county":"DeWitt","stateadd":"TX"},{"county":"Fayette","stateadd":"TX","statefips":"48","countyfips":"149"},{"county":"Fort Bend","stateadd":"TX","statefips":"48","countyfips":"157"},{"county":"Galveston","stateadd":"TX","statefips":"48","countyfips":"167"},{"county":"Goliad","stateadd":"TX","statefips":"48","countyfips":"175"},{"county":"Gonzales","stateadd":"TX","statefips":"48","countyfips":"177"},{"county":"Grimes","stateadd":"TX","statefips":"48","countyfips":"185"},{"county":"Hardin","stateadd":"TX","statefips":"48","countyfips":"199"},{"county":"Harris","stateadd":"TX","statefips":"48","countyfips":"201"},{"county":"Jackson","stateadd":"TX","statefips":"48","countyfips":"239"},{"county":"Jasper","stateadd":"TX","statefips":"48","countyfips":"241"},{"county":"Jefferson","stateadd":"TX","statefips":"48","countyfips":"245"},{"county":"Karnes","stateadd":"TX","statefips":"48","countyfips":"255"},{"county":"Kleberg","stateadd":"TX","statefips":"48","countyfips":"273"},{"county":"Lavaca","stateadd":"TX","statefips":"48","countyfips":"285"},{"county":"Lee","stateadd":"TX","statefips":"48","countyfips":"287"},{"county":"Liberty","stateadd":"TX","statefips":"48","countyfips":"291"},{"county":"Matagorda","stateadd":"TX","statefips":"48","countyfips":"321"},{"county":"Montgomery","stateadd":"TX","statefips":"48","countyfips":"339"},{"county":"Newton","stateadd":"TX","statefips":"48","countyfips":"351"},{"county":"Nueces","stateadd":"TX","statefips":"48","countyfips":"355"},{"county":"Orange","stateadd":"TX","statefips":"48","countyfips":"361"},{"county":"Polk","stateadd":"TX","statefips":"48","countyfips":"373"},{"county":"Refugio","stateadd":"TX","statefips":"48","countyfips":"391"},{"county":"Sabine","stateadd":"TX","statefips":"48","countyfips":"403"},{"county":"San Jacinto","stateadd":"TX","statefips":"48","countyfips":"407"},{"county":"San Patricio","stateadd":"TX","statefips":"48","countyfips":"409"},{"county":"Tyler","stateadd":"TX","statefips":"48","countyfips":"457"},{"county":"Victoria","stateadd":"TX","statefips":"48","countyfips":"469"},{"county":"Walker","stateadd":"TX","statefips":"48","countyfips":"471"},{"county":"Waller","stateadd":"TX","statefips":"48","countyfips":"473"},{"county":"Wharton","stateadd":"TX","statefips":"48","countyfips":"481"}],"fema_id":"4332","lat":33.5842591,"lon":-101.8782822}],"disasters":[{"disasterNumber":398,"ihProgramDeclared":0,"iaProgramDeclared":1,"paProgramDeclared":1,"hmProgramDeclared":0,"state":"TX","statefips":"48","declarationDate":"1973-07-11T00:00:00.000Z","fyDeclared":"1973","disasterType":"DR","incidentType":"Flood","title":"SEVERE STORMS & FLOODING","incidentBeginDate":"1973-07-11T00:00:00.000Z","incidentEndDate":"1973-07-11T00:00:00.000Z","disasterCloseOutDate":"1976-09-16T00:00:00.000Z","declaredCountyArea":"Harris (County)","placeCode":"99201","countyfips":"201","hash":"2e880c90591162a70f87cfb1950edf26","latRefresh":"2019-07-26T18:09:00.263Z"},{"disasterNumber":510,"ihProgramDeclared":0,"iaProgramDeclared":1,"paProgramDeclared":1,"hmProgramDeclared":0,"state":"TX","statefips":"48","declarationDate":"1976-06-19T00:00:00.000Z","fyDeclared":"1976","disasterType":"DR","incidentType":"Flood","title":"SEVERE STORMS & FLOODING","incidentBeginDate":"1976-06-19T00:00:00.000Z","incidentEndDate":"1976-06-19T00:00:00.000Z","disasterCloseOutDate":"1981-08-27T00:00:00.000Z","declaredCountyArea":"Harris (County)","placeCode":"99201","countyfips":"201","hash":"25e33248f9b0968fded2c48893b1b86d","latRefresh":"2019-07-26T18:09:01.372Z"},{"disasterNumber":580,"ihProgramDeclared":0,"iaProgramDeclared":1,"paProgramDeclared":0,"hmProgramDeclared":0,"state":"TX","statefips":"48","declarationDate":"1979-04-26T00:00:00.000Z","fyDeclared":"1979","disasterType":"DR","incidentType":"Severe Storm(s)","title":"SEVERE STORMS, TORNADOES & FLOODING","incidentBeginDate":"1979-04-26T00:00:00.000Z","incidentEndDate":"1979-04-26T00:00:00.000Z","disasterCloseOutDate":"1983-10-31T00:00:00.000Z","declaredCountyArea":"Harris (County)","placeCode":"99201","countyfips":"201","hash":"1ba2ac1935c2e8eb6ef599f6aabe8cf9","latRefresh":"2019-07-26T18:09:01.883Z"},{"disasterNumber":603,"ihProgramDeclared":0,"iaProgramDeclared":1,"paProgramDeclared":1,"hmProgramDeclared":0,"state":"TX","statefips":"48","declarationDate":"1979-09-25T00:00:00.000Z","fyDeclared":"1979","disasterType":"DR","incidentType":"Flood","title":"SEVERE STORMS & FLOODING","incidentBeginDate":"1979-09-25T00:00:00.000Z","incidentEndDate":"1979-09-25T00:00:00.000Z","disasterCloseOutDate":"1982-08-18T00:00:00.000Z","declaredCountyArea":"Harris (County)","placeCode":"99201","countyfips":"201","hash":"38a40017cab08837d6f09fa0ed2f28b3","latRefresh":"2019-07-26T18:09:02.153Z"},{"disasterNumber":689,"ihProgramDeclared":0,"iaProgramDeclared":1,"paProgramDeclared":1,"hmProgramDeclared":0,"state":"TX","statefips":"48","declarationDate":"1983-08-19T00:00:00.000Z","fyDeclared":"1983","disasterType":"DR","incidentType":"Hurricane","title":"HURRICANE ALICIA","incidentBeginDate":"1983-08-18T00:00:00.000Z","incidentEndDate":"1983-08-20T00:00:00.000Z","disasterCloseOutDate":"1988-10-05T00:00:00.000Z","declaredCountyArea":"Harris (County)","placeCode":"99201","countyfips":"201","hash":"29d163c1ea96dfd49f73d150d256b122","latRefresh":"2019-07-26T18:09:02.522Z"},{"disasterNumber":727,"ihProgramDeclared":0,"iaProgramDeclared":1,"paProgramDeclared":0,"hmProgramDeclared":0,"state":"TX","statefips":"48","declarationDate":"1984-10-30T00:00:00.000Z","fyDeclared":"1985","disasterType":"DR","incidentType":"Flood","title":"SEVERE STORMS & FLOODING","incidentBeginDate":"1984-10-30T00:00:00.000Z","incidentEndDate":"1984-10-30T00:00:00.000Z","disasterCloseOutDate":"1989-06-15T00:00:00.000Z","declaredCountyArea":"Harris (County)","placeCode":"99201","countyfips":"201","hash":"cc7daf8dab99dddb3f83d0485312439b","latRefresh":"2019-07-26T18:09:02.786Z"},{"disasterNumber":828,"ihProgramDeclared":0,"iaProgramDeclared":1,"paProgramDeclared":1,"hmProgramDeclared":0,"state":"TX","statefips":"48","declarationDate":"1989-05-19T00:00:00.000Z","fyDeclared":"1989","disasterType":"DR","incidentType":"Severe Storm(s)","title":"SEVERE STORMS, TORNADOES & FLOODING","incidentBeginDate":"1989-05-04T00:00:00.000Z","incidentEndDate":"1989-06-07T00:00:00.000Z","disasterCloseOutDate":"1998-03-03T00:00:00.000Z","declaredCountyArea":"Harris (County)","placeCode":"99201","countyfips":"201","hash":"d0bde7386e865ea641ecb815052c7a11","latRefresh":"2019-07-26T18:09:03.481Z"},{"disasterNumber":836,"ihProgramDeclared":0,"iaProgramDeclared":1,"paProgramDeclared":0,"hmProgramDeclared":0,"state":"TX","statefips":"48","declarationDate":"1989-07-18T00:00:00.000Z","fyDeclared":"1989","disasterType":"DR","incidentType":"Flood","title":"TROPICAL STORM ALLISON","incidentBeginDate":"1989-06-25T00:00:00.000Z","incidentEndDate":"1989-07-07T00:00:00.000Z","disasterCloseOutDate":"1994-10-24T00:00:00.000Z","declaredCountyArea":"Harris (County)","placeCode":"99201","countyfips":"201","hash":"1586d69060122e0636eb290757fca9a3","latRefresh":"2019-07-26T18:09:03.611Z"},{"disasterNumber":937,"ihProgramDeclared":0,"iaProgramDeclared":1,"paProgramDeclared":0,"hmProgramDeclared":0,"state":"TX","statefips":"48","declarationDate":"1992-03-20T00:00:00.000Z","fyDeclared":"1992","disasterType":"DR","incidentType":"Flood","title":"SEVERE STORMS & FLOODING","incidentBeginDate":"1992-03-04T00:00:00.000Z","incidentEndDate":"1992-03-30T00:00:00.000Z","disasterCloseOutDate":"1995-09-08T00:00:00.000Z","declaredCountyArea":"Harris (County)","placeCode":"99201","countyfips":"201","hash":"2db9d876cb21fe74511450ce9676c9d5","latRefresh":"2019-07-26T18:09:04.673Z"},{"disasterNumber":970,"ihProgramDeclared":0,"iaProgramDeclared":1,"paProgramDeclared":0,"hmProgramDeclared":0,"state":"TX","statefips":"48","declarationDate":"1992-12-04T00:00:00.000Z","fyDeclared":"1993","disasterType":"DR","incidentType":"Tornado","title":"SEVERE THUNDERSTORMS & TORNADOES","incidentBeginDate":"1992-11-21T00:00:00.000Z","incidentEndDate":"1992-11-21T00:00:00.000Z","disasterCloseOutDate":"1995-04-24T00:00:00.000Z","declaredCountyArea":"Harris (County)","placeCode":"99201","countyfips":"201","hash":"28024d0ab6467b07f0f3b1298aa0f7a0","latRefresh":"2019-07-26T18:09:04.931Z"},{"disasterNumber":1041,"ihProgramDeclared":0,"iaProgramDeclared":1,"paProgramDeclared":1,"hmProgramDeclared":0,"state":"TX","statefips":"48","declarationDate":"1994-10-18T00:00:00.000Z","fyDeclared":"1995","disasterType":"DR","incidentType":"Flood","title":"SEVERE THUNDERSTORMS AND FLOODING","incidentBeginDate":"1994-10-14T00:00:00.000Z","incidentEndDate":"1994-11-08T00:00:00.000Z","disasterCloseOutDate":"2005-08-25T00:00:00.000Z","declaredCountyArea":"Harris (County)","placeCode":"99201","countyfips":"201","hash":"6cbee6c7142b13cbc47217f3b25832c3","latRefresh":"2019-07-26T18:09:06.040Z"},{"disasterNumber":1239,"ihProgramDeclared":0,"iaProgramDeclared":0,"paProgramDeclared":0,"hmProgramDeclared":1,"state":"TX","statefips":"48","declarationDate":"1998-08-26T15:50:08.000Z","fyDeclared":"1998","disasterType":"DR","incidentType":"Severe Storm(s)","title":"TROPICAL STORM CHARLEY","incidentBeginDate":"1998-08-22T13:55:00.000Z","incidentEndDate":"1998-08-31T12:00:00.000Z","disasterCloseOutDate":"2006-03-24T00:00:00.000Z","declaredCountyArea":"Harris (County)","placeCode":"99201","countyfips":"201","hash":"c4efb2a46e7734495b858de4433523b5","latRefresh":"2019-07-26T18:09:09.213Z"},{"disasterNumber":1245,"ihProgramDeclared":0,"iaProgramDeclared":1,"paProgramDeclared":1,"hmProgramDeclared":0,"state":"TX","statefips":"48","declarationDate":"1998-09-23T00:00:00.000Z","fyDeclared":"1998","disasterType":"DR","incidentType":"Severe Storm(s)","title":"HURRICANE GEORGES - TEXAS","incidentBeginDate":"1998-09-09T00:00:00.000Z","incidentEndDate":"1998-10-05T00:00:00.000Z","disasterCloseOutDate":"2005-08-25T00:00:00.000Z","declaredCountyArea":"Harris (County)","placeCode":"99201","countyfips":"201","hash":"5640df1b5a83c6714a7571c6337946c9","latRefresh":"2019-07-26T18:09:09.411Z"},{"disasterNumber":1257,"ihProgramDeclared":0,"iaProgramDeclared":1,"paProgramDeclared":1,"hmProgramDeclared":1,"state":"TX","statefips":"48","declarationDate":"1998-10-21T20:04:00.000Z","fyDeclared":"1999","disasterType":"DR","incidentType":"Flood","title":"TX-FLOODING 10/18/98","incidentBeginDate":"1998-10-17T08:00:00.000Z","incidentEndDate":"1998-11-15T08:00:00.000Z","disasterCloseOutDate":"2012-06-19T00:00:00.000Z","declaredCountyArea":"Harris (County)","placeCode":"99201","countyfips":"201","hash":"251dd7983e212f07ee3132f752e3251f","latRefresh":"2019-07-26T18:09:09.603Z"},{"disasterNumber":3142,"ihProgramDeclared":0,"iaProgramDeclared":0,"paProgramDeclared":1,"hmProgramDeclared":0,"state":"TX","statefips":"48","declarationDate":"1999-09-01T16:50:00.000Z","fyDeclared":"1999","disasterType":"EM","incidentType":"Fire","title":"EXTREME FIRE HAZARDS","incidentBeginDate":"1999-08-01T12:00:00.000Z","incidentEndDate":"1999-12-10T00:00:00.000Z","disasterCloseOutDate":"2002-07-09T00:00:00.000Z","declaredCountyArea":"Harris (County)","placeCode":"99201","countyfips":"201","hash":"0244349a68d6286a9c479b95ff1b2058","latRefresh":"2019-07-26T18:09:23.622Z"},{"disasterNumber":1379,"ihProgramDeclared":0,"iaProgramDeclared":1,"paProgramDeclared":1,"hmProgramDeclared":1,"state":"TX","statefips":"48","declarationDate":"2001-06-09T11:00:00.000Z","fyDeclared":"2001","disasterType":"DR","incidentType":"Coastal Storm","title":"TX-TROPICAL STORM ALLISON-06-06-2001","incidentBeginDate":"2001-06-05T16:30:00.000Z","incidentEndDate":"2001-06-20T00:00:00.000Z","disasterCloseOutDate":null,"declaredCountyArea":"Harris (County)","placeCode":"99201","countyfips":"201","hash":"2b13d0e93969961071e6e747984c44ce","latRefresh":"2019-10-10T19:56:49.323Z"},{"disasterNumber":1439,"ihProgramDeclared":1,"iaProgramDeclared":1,"paProgramDeclared":0,"hmProgramDeclared":1,"state":"TX","statefips":"48","declarationDate":"2002-11-05T00:00:00.000Z","fyDeclared":"2003","disasterType":"DR","incidentType":"Severe Storm(s)","title":"SEVERE STORMS, TORNADOES AND FLOODING","incidentBeginDate":"2002-10-24T17:30:00.000Z","incidentEndDate":"2002-11-15T00:00:00.000Z","disasterCloseOutDate":"2013-03-26T00:00:00.000Z","declaredCountyArea":"Harris (County)","placeCode":"99201","countyfips":"201","hash":"6468d00c83d4d8e825c1c837c1770332","latRefresh":"2019-07-26T18:09:12.086Z"},{"disasterNumber":3216,"ihProgramDeclared":0,"iaProgramDeclared":0,"paProgramDeclared":1,"hmProgramDeclared":0,"state":"TX","statefips":"48","declarationDate":"2005-09-02T12:51:00.000Z","fyDeclared":"2005","disasterType":"EM","incidentType":"Hurricane","title":"HURRICANE KATRINA EVACUATION","incidentBeginDate":"2005-08-29T00:00:00.000Z","incidentEndDate":"2005-10-01T08:55:00.000Z","disasterCloseOutDate":"2014-07-01T00:00:00.000Z","declaredCountyArea":"Harris (County)","placeCode":"99201","countyfips":"201","hash":"0e71a84dd8b5fc0427f7a8ce054d3bc9","latRefresh":"2019-07-26T18:09:25.220Z"},{"disasterNumber":3261,"ihProgramDeclared":0,"iaProgramDeclared":0,"paProgramDeclared":1,"hmProgramDeclared":0,"state":"TX","statefips":"48","declarationDate":"2005-09-21T19:07:00.000Z","fyDeclared":"2005","disasterType":"EM","incidentType":"Hurricane","title":"HURRICANE RITA","incidentBeginDate":"2005-09-20T07:24:57.000Z","incidentEndDate":"2005-10-14T09:33:00.000Z","disasterCloseOutDate":"2013-08-12T00:00:00.000Z","declaredCountyArea":"Harris (County)","placeCode":"99201","countyfips":"201","hash":"23f6f4ca815bf3185bc713fc6a1efc5e","latRefresh":"2019-07-26T18:09:27.131Z"},{"disasterNumber":1606,"ihProgramDeclared":1,"iaProgramDeclared":1,"paProgramDeclared":1,"hmProgramDeclared":1,"state":"TX","statefips":"48","declarationDate":"2005-09-24T19:58:00.000Z","fyDeclared":"2005","disasterType":"DR","incidentType":"Hurricane","title":"HURRICANE RITA","incidentBeginDate":"2005-09-23T00:00:00.000Z","incidentEndDate":"2005-10-14T16:01:00.000Z","disasterCloseOutDate":null,"declaredCountyArea":"Harris (County)","placeCode":"99201","countyfips":"201","hash":"e6c0bd11a08ee0d6b44d64a0cb1b4c93","latRefresh":"2019-10-10T19:56:51.951Z"},{"disasterNumber":1624,"ihProgramDeclared":0,"iaProgramDeclared":0,"paProgramDeclared":1,"hmProgramDeclared":1,"state":"TX","statefips":"48","declarationDate":"2006-01-11T19:13:00.000Z","fyDeclared":"2006","disasterType":"DR","incidentType":"Fire","title":"EXTREME WILDFIRE THREAT","incidentBeginDate":"2005-11-27T00:00:00.000Z","incidentEndDate":"2006-05-14T18:18:00.000Z","disasterCloseOutDate":"2015-10-14T23:59:00.000Z","declaredCountyArea":"Harris (County)","placeCode":"99201","countyfips":"201","hash":"73199d42ffce76008086dd02785d3d7f","latRefresh":"2019-07-26T18:09:15.348Z"},{"disasterNumber":3277,"ihProgramDeclared":0,"iaProgramDeclared":0,"paProgramDeclared":1,"hmProgramDeclared":0,"state":"TX","statefips":"48","declarationDate":"2007-08-18T16:30:00.000Z","fyDeclared":"2007","disasterType":"EM","incidentType":"Hurricane","title":"HURRICANE DEAN","incidentBeginDate":"2007-08-17T00:00:00.000Z","incidentEndDate":"2007-09-05T12:00:00.000Z","disasterCloseOutDate":"2012-10-16T00:00:00.000Z","declaredCountyArea":"Harris (County)","placeCode":"99201","countyfips":"201","hash":"0a067b1b6660a6b1ad575085ea4e00f3","latRefresh":"2019-07-26T18:09:27.520Z"},{"disasterNumber":1730,"ihProgramDeclared":1,"iaProgramDeclared":1,"paProgramDeclared":0,"hmProgramDeclared":1,"state":"TX","statefips":"48","declarationDate":"2007-10-02T18:30:00.000Z","fyDeclared":"2008","disasterType":"DR","incidentType":"Severe Storm(s)","title":"TROPICAL STORM ERIN","incidentBeginDate":"2007-08-14T00:00:00.000Z","incidentEndDate":"2007-08-20T00:00:00.000Z","disasterCloseOutDate":"2015-06-11T23:59:00.000Z","declaredCountyArea":"Harris (County)","placeCode":"99201","countyfips":"201","hash":"9aea86ea2b77395fd890628f9bd467dc","latRefresh":"2019-07-26T18:09:16.562Z"},{"disasterNumber":3290,"ihProgramDeclared":0,"iaProgramDeclared":0,"paProgramDeclared":1,"hmProgramDeclared":0,"state":"TX","statefips":"48","declarationDate":"2008-08-29T17:30:00.000Z","fyDeclared":"2008","disasterType":"EM","incidentType":"Hurricane","title":"HURRICANE GUSTAV","incidentBeginDate":"2008-08-27T00:00:00.000Z","incidentEndDate":"2008-09-07T00:00:00.000Z","disasterCloseOutDate":"2015-10-15T23:59:00.000Z","declaredCountyArea":"Harris (County)","placeCode":"99201","countyfips":"201","hash":"ef0b6f15dc4bd52aafaa869eb57dbb49","latRefresh":"2019-07-26T18:09:29.114Z"},{"disasterNumber":3294,"ihProgramDeclared":0,"iaProgramDeclared":0,"paProgramDeclared":1,"hmProgramDeclared":0,"state":"TX","statefips":"48","declarationDate":"2008-09-10T00:00:00.000Z","fyDeclared":"2008","disasterType":"EM","incidentType":"Hurricane","title":"HURRICANE IKE","incidentBeginDate":"2008-09-07T17:00:00.000Z","incidentEndDate":"2008-09-26T00:00:00.000Z","disasterCloseOutDate":"2015-05-27T00:00:00.000Z","declaredCountyArea":"Harris (County)","placeCode":"99201","countyfips":"201","hash":"93c9e3c56f2f547583a6a93621300afd","latRefresh":"2019-07-26T18:09:29.416Z"},{"disasterNumber":1791,"ihProgramDeclared":1,"iaProgramDeclared":1,"paProgramDeclared":1,"hmProgramDeclared":1,"state":"TX","statefips":"48","declarationDate":"2008-09-13T13:30:00.000Z","fyDeclared":"2008","disasterType":"DR","incidentType":"Hurricane","title":"HURRICANE IKE","incidentBeginDate":"2008-09-07T17:00:00.000Z","incidentEndDate":"2008-10-02T00:00:00.000Z","disasterCloseOutDate":null,"declaredCountyArea":"Harris (County)","placeCode":"99201","countyfips":"201","hash":"21cc6921b7789bfcaa56d3f735e9c970","latRefresh":"2019-10-10T19:56:53.812Z"},{"disasterNumber":2924,"ihProgramDeclared":0,"iaProgramDeclared":0,"paProgramDeclared":1,"hmProgramDeclared":0,"state":"TX","statefips":"48","declarationDate":"2011-06-17T20:04:00.000Z","fyDeclared":"2011","disasterType":"FM","incidentType":"Fire","title":"FOREST BROOK FIRE","incidentBeginDate":"2011-06-17T00:00:00.000Z","incidentEndDate":"2011-06-20T00:00:00.000Z","disasterCloseOutDate":"2015-01-08T23:59:00.000Z","declaredCountyArea":"Harris (County)","placeCode":"99201","countyfips":"201","hash":"472a0063118e41017a6724c5a1f5ba31","latRefresh":"2019-07-26T18:09:21.235Z"},{"disasterNumber":4223,"ihProgramDeclared":1,"iaProgramDeclared":0,"paProgramDeclared":1,"hmProgramDeclared":1,"state":"TX","statefips":"48","declarationDate":"2015-05-29T23:02:00.000Z","fyDeclared":"2015","disasterType":"DR","incidentType":"Severe Storm(s)","title":"SEVERE STORMS, TORNADOES, STRAIGHT-LINE WINDS AND FLOODING","incidentBeginDate":"2015-05-04T00:00:00.000Z","incidentEndDate":"2015-06-22T23:59:00.000Z","disasterCloseOutDate":"","declaredCountyArea":"Harris (County)","placeCode":"99201","countyfips":"201","hash":"2d241bcc4d19147c9c2afa6df71373ee","latRefresh":"2019-10-10T19:57:05.978Z"},{"disasterNumber":4245,"ihProgramDeclared":1,"iaProgramDeclared":0,"paProgramDeclared":0,"hmProgramDeclared":1,"state":"TX","statefips":"48","declarationDate":"2015-11-25T11:00:00.000Z","fyDeclared":"2016","disasterType":"DR","incidentType":"Severe Storm(s)","title":"SEVERE STORMS, TORNADOES, STRAIGHT-LINE WINDS, AND FLOODING","incidentBeginDate":"2015-10-22T00:00:00.000Z","incidentEndDate":"2015-10-31T00:00:00.000Z","disasterCloseOutDate":"","declaredCountyArea":"Harris (County)","placeCode":"99201","countyfips":"201","hash":"6fe127b79501581be36013a3a236ab3e","latRefresh":"2019-10-10T19:57:06.239Z"},{"disasterNumber":4269,"ihProgramDeclared":1,"iaProgramDeclared":0,"paProgramDeclared":1,"hmProgramDeclared":1,"state":"TX","statefips":"48","declarationDate":"2016-04-25T15:46:00.000Z","fyDeclared":"2016","disasterType":"DR","incidentType":"Flood","title":"SEVERE STORMS AND FLOODING","incidentBeginDate":"2016-04-17T00:00:00.000Z","incidentEndDate":"2016-04-30T23:59:00.000Z","disasterCloseOutDate":"","declaredCountyArea":"Harris (County)","placeCode":"99201","countyfips":"201","hash":"7b62f7236c1594e5bbba69e4f5ea3f14","latRefresh":"2019-10-10T19:57:06.737Z"},{"disasterNumber":4272,"ihProgramDeclared":1,"iaProgramDeclared":0,"paProgramDeclared":0,"hmProgramDeclared":1,"state":"TX","statefips":"48","declarationDate":"2016-06-11T13:23:00.000Z","fyDeclared":"2016","disasterType":"DR","incidentType":"Flood","title":"SEVERE STORMS AND FLOODING","incidentBeginDate":"2016-05-22T00:00:00.000Z","incidentEndDate":"2016-06-24T23:59:00.000Z","disasterCloseOutDate":"","declaredCountyArea":"Harris (County)","placeCode":"99201","countyfips":"201","hash":"bdf909fade8fb68181fcdc8a1b9e4cf1","latRefresh":"2019-10-10T19:57:06.733Z"},{"disasterNumber":4332,"ihProgramDeclared":1,"iaProgramDeclared":0,"paProgramDeclared":1,"hmProgramDeclared":1,"state":"TX","statefips":"48","declarationDate":"2017-08-25T21:35:00.000Z","fyDeclared":"2017","disasterType":"DR","incidentType":"Hurricane","title":"HURRICANE HARVEY","incidentBeginDate":"2017-08-23T08:09:52.000Z","incidentEndDate":"2017-09-15T23:59:00.000Z","disasterCloseOutDate":"","declaredCountyArea":"Harris (County)","placeCode":"99201","countyfips":"201","hash":"7cd8a4b7a2441b06669a32108e860816","latRefresh":"2019-10-10T19:57:07.503Z"},{"disasterNumber":4466,"ihProgramDeclared":1,"iaProgramDeclared":0,"paProgramDeclared":0,"hmProgramDeclared":1,"state":"TX","statefips":"48","declarationDate":"2019-10-04T14:25:00.000Z","fyDeclared":"2020","disasterType":"DR","incidentType":"Flood","title":"TROPICAL STORM IMELDA","incidentBeginDate":"2019-09-17T08:00:00.000Z","incidentEndDate":"2019-09-23T08:00:00.000Z","disasterCloseOutDate":"","declaredCountyArea":"Harris (County)","placeCode":"99201","countyfips":"201","hash":"8873bc2b7c66488e33ffbdc253de15cf","latRefresh":"2019-10-10T19:57:09.288Z"},{"disasterNumber":3458,"ihProgramDeclared":0,"iaProgramDeclared":0,"paProgramDeclared":1,"hmProgramDeclared":0,"state":"TX","statefips":"48","declarationDate":"2020-03-13T16:00:00.000Z","fyDeclared":"2020","disasterType":"EM","incidentType":"Biological","title":"COVID-19","incidentBeginDate":"2020-01-20T14:00:00.000Z","incidentEndDate":"","disasterCloseOutDate":"","declaredCountyArea":"Harris (County)","placeCode":"99201","countyfips":"201","hash":"f2ba734014805725f530f0bbe1b14068","latRefresh":"2020-03-16T15:20:58.875Z"},{"disasterNumber":4485,"ihProgramDeclared":1,"iaProgramDeclared":0,"paProgramDeclared":1,"hmProgramDeclared":0,"state":"TX","statefips":"48","declarationDate":"2020-03-25T12:10:00.000Z","fyDeclared":"2020","disasterType":"DR","incidentType":"Biological","title":"COVID-19 PANDEMIC","incidentBeginDate":"2020-01-20T14:00:00.000Z","incidentEndDate":"","disasterCloseOutDate":"","declaredCountyArea":"Harris (County)","placeCode":"99201","countyfips":"201","hash":"838b743097b49295169f245a8be425a1","latRefresh":"2020-03-25T17:40:57.008Z"}],"storms":{"Tornado":{"1950":1,"1953":1,"1954":1,"1958":1,"1959":2,"1960":2,"1961":1,"1962":1,"1963":1,"1964":3,"1965":1,"1966":1,"1967":3,"1968":3,"1969":3,"1970":8,"1971":7,"1972":8,"1973":4,"1974":7,"1975":2,"1976":4,"1977":5,"1978":3,"1979":8,"1980":5,"1981":4,"1982":2,"1983":30,"1984":4,"1986":3,"1987":1,"1989":1,"1991":6,"1992":10,"1993":6,"1994":2,"1995":3,"1996":1,"1997":7,"1998":7,"2008":1,"2009":1,"2010":1,"2011":1,"2014":1,"2015":5,"2016":4,"2017":12,"2019":2},"Thunderstorm Wind":{"1955":1,"1957":1,"1958":3,"1960":1,"1961":2,"1962":3,"1963":1,"1964":2,"1965":3,"1966":5,"1967":1,"1968":3,"1969":1,"1970":4,"1972":1,"1973":2,"1974":2,"1975":6,"1976":6,"1977":8,"1978":4,"1979":10,"1980":3,"1981":6,"1982":4,"1983":11,"1984":9,"1985":4,"1986":1,"1987":10,"1988":4,"1989":4,"1990":12,"1991":4,"1992":11,"1993":7,"1994":8,"1995":24,"1996":34,"1997":41,"1998":25,"2007":16,"2008":13,"2009":12,"2010":5,"2011":8,"2012":16,"2013":8,"2014":14,"2015":15,"2016":8,"2017":11,"2018":18,"2019":11},"Hail":{"1956":1,"1959":1,"1963":1,"1966":1,"1968":3,"1969":2,"1971":1,"1972":2,"1973":3,"1974":1,"1975":3,"1976":1,"1977":3,"1978":3,"1979":3,"1980":4,"1981":4,"1983":7,"1984":6,"1985":6,"1986":3,"1987":4,"1988":2,"1989":3,"1990":1,"1991":5,"1992":12,"1993":9,"1994":11,"1995":21,"1996":21,"1997":24,"1998":12,"2007":31,"2008":14,"2009":21,"2010":5,"2011":1,"2012":9,"2013":11,"2014":5,"2015":14,"2016":17,"2017":7,"2018":2,"2019":17},"Lightning":{"1996":2,"1997":6,"2007":2,"2008":4,"2009":1,"2012":4,"2013":5,"2014":1,"2015":5,"2016":2,"2017":5,"2018":2,"2019":2},"Flash Flood":{"1996":2,"1997":10,"1998":14,"2007":14,"2008":3,"2009":11,"2010":2,"2012":8,"2013":3,"2014":9,"2015":10,"2016":7,"2017":23,"2018":4,"2019":9},"Funnel Cloud":{"2007":5,"2008":2,"2010":1,"2011":1,"2012":1,"2013":1,"2014":1,"2016":1,"2017":1,"2018":1,"2019":1},"Flood":{"2012":1,"2013":1,"2016":1},"Heavy Rain":{"2013":2,"2014":4,"2018":1}},"bvis":[{"year":2012,"county":48201,"estab_total":93718,"estab_vuln_total":7404,"mm_employees":1882521,"emp_vuln_total":172917},{"year":2013,"county":48201,"estab_total":95376,"estab_vuln_total":7550,"mm_employees":1971437,"emp_vuln_total":185097},{"year":2014,"county":48201,"estab_total":97513,"estab_vuln_total":7734,"mm_employees":2012118,"emp_vuln_total":202686},{"year":2015,"county":48201,"estab_total":99121,"estab_vuln_total":8023,"mm_employees":2059669,"emp_vuln_total":210805},{"year":2016,"county":48201,"estab_total":100884,"estab_vuln_total":8317,"mm_employees":2045435,"emp_vuln_total":220804},{"year":2017,"county":48201,"estab_total":102213,"estab_vuln_total":8118,"mm_employees":2041861,"emp_vuln_total":211699}]}