{"demo":[{"group":312,"value":5715},{"group":313,"value":15332},{"group":314,"value":7428},{"group":315,"value":21975},{"group":316,"value":20875},{"group":317,"value":10537}],"population":81862,"cutter":{"SOC":{"id":"1","name":"Social Resilience","sources":[{"id":"11","name":"Educational Equity","states":0.041,"us":0.074,"county":0.0151},{"id":"12","name":"Age","states":0.732,"us":0.721,"county":0.8179},{"id":"13","name":"Transportation Access","states":0.931,"us":0.916,"county":0.9282},{"id":"14","name":"Communication Capacity","states":0.884,"us":0.873,"county":0.8805},{"id":"15","name":"Language Capacity","states":0.722,"us":0.903,"county":0.8073},{"id":"16","name":"Special Needs","states":0.653,"us":0.657,"county":0.6298},{"id":"17","name":"Health Coverage","states":0.602,"us":0.762,"county":0.5675}],"aggregate":{"us":0.700857142857143,"state":0.6521428571428572,"county":0.6637571428571428}},"ECON":{"id":"2","name":"Economic Resilience","sources":[{"id":"21","name":"Housing Capital","states":0.605,"us":0.641,"county":0.7348},{"id":"22","name":"Employment","states":0.458,"us":0.489,"county":0.3694},{"id":"23","name":"Income and Equality (GINI Coeffecient)","states":0.549,"us":0.598,"county":0.6285},{"id":"24","name":"Single Sector Employment Dependence","states":0.935,"us":0.982,"county":0.9805},{"id":"25","name":"Employment (Female)","states":0.48,"us":0.536,"county":0.2772},{"id":"26","name":"Business Size","states":0.005,"us":0.007,"county":0.0041},{"id":"27","name":"Health Access","states":0.118,"us":0.125,"county":0.117}],"aggregate":{"us":0.4825714285714286,"state":0.45,"county":0.44450000000000006}},"INST":{"id":"3","name":"Institutional Resilience","sources":[{"id":"31","name":"Mitigation - Hazard Mitigation Plan Coverage","us":null,"county":null},{"id":"32","name":"Flood Coverage","states":0.02,"us":0.014,"county":0.0367},{"id":"33","name":"Municipal Services","us":null,"county":null},{"id":"34","name":"Mitigation - CRS Flood","us":null,"county":null},{"id":"35","name":"Political Fragmentation","us":null,"county":null},{"id":"36","name":"Previous Disaster Experience","states":0.205,"us":0.211,"county":0.3846},{"id":"37","name":"Mitigation and Social Connectivity","us":null,"county":null},{"id":"38","name":"Mitigation - Storm Ready Communities","us":null,"county":null}],"aggregate":{"us":0.1125,"state":0.11249999999999999,"county":0.21065}},"IHFR":{"id":"4","name":"Infrastructure Resilience","sources":[{"id":"41","name":"Housing Type","states":0.754,"us":0.797,"county":0.5158},{"id":"42","name":"Shelter Capacity","states":0.17,"us":0.184,"county":0.1887},{"id":"43","name":"Medical Capacity","states":0.005,"us":0.003,"county":0.0001},{"id":"44","name":"Access/Evacuation Potential","states":0.006,"us":0.009,"county":0.0062},{"id":"45","name":"Housing Age","states":0.461,"us":0.459,"county":0.6862},{"id":"46","name":"Sheltering Need","states":0.001,"us":0.002,"county":0.0004},{"id":"47","name":"Recovery (Schools)","states":0.001,"us":0.003,"county":0.0004}],"aggregate":{"us":0.20814285714285716,"state":0.1997142857142857,"county":0.19968571428571427}},"COMM":{"id":"5","name":"Community Capital","sources":[{"id":"51","name":"Place Attachment - Migration","states":0.818,"us":0.912,"county":0.854},{"id":"52","name":"Place Attachment - Born","states":0.72,"us":0.671,"county":0.7274},{"id":"53","name":"Political Engagement","states":0.313,"us":0.404,"county":0.2351},{"id":"54","name":"Social Capital - Religion","states":0.202,"us":0.186,"county":0.1578},{"id":"55","name":"Social Capital - Civic Involvement","states":0.055,"us":0.089,"county":0.0298},{"id":"56","name":"Social Capital - Advocacy","states":0.01,"us":0.016,"county":0.0035},{"id":"57","name":"Innovation","states":0.032,"us":0.034,"county":0.0164}],"aggregate":{"us":0.33028571428571424,"state":0.3071428571428571,"county":0.2891428571428571}},"FLOR":{"id":"100","name":"Special/Custom","sources":[{"id":"101","name":"Business Vulnerability","us":null,"county":null},{"id":"102","name":"Flood Zone","us":null,"county":null},{"id":"103","name":"Commuting","us":null,"county":null},{"id":"104","name":"Housing Construction","us":null,"county":null},{"id":"105","name":"Second Stage Businesses","states":0.507,"us":0.487,"county":0.5927},{"id":"106","name":"Households with Broadband Access","states":0.605,"us":0.645,"county":0.6859}],"aggregate":{"us":0.5660000000000001,"state":0.556,"county":0.6393}}},"statefips":"48","countyfips":"291","county":"Liberty","state":"Texas","area":1158.417,"eda2018":[{"source_file":"2018DisasterSupp","eda_regional_office":"Austin","fain":"87905237","grantee_name":"Gulf Coast Economic Development District","grantee_city":"Houston","grantee_state":"Texas","project_state":"Texas","grant_purpose":"Disaster Recovery Coordinator","grant_award_date":"2018-06-18T00:00:00.000Z","award_amount":240000,"total_project_funding":300000,"statewide":0,"counties":[{"county":"Austin","stateadd":"TX","statefips":"48","countyfips":"015"},{"county":"Brazoria","stateadd":"TX","statefips":"48","countyfips":"039"},{"county":"Chambers","stateadd":"TX","statefips":"48","countyfips":"071"},{"county":"Colorado","stateadd":"TX","statefips":"48","countyfips":"089"},{"county":"Fort Bend","stateadd":"TX","statefips":"48","countyfips":"157"},{"county":"Galveston","stateadd":"TX","statefips":"48","countyfips":"167"},{"county":"Harris","stateadd":"TX","statefips":"48","countyfips":"201"},{"county":"Liberty","stateadd":"TX","statefips":"48","countyfips":"291"},{"county":"Matagorda","stateadd":"TX","statefips":"48","countyfips":"321"},{"county":"Montgomery","stateadd":"TX","statefips":"48","countyfips":"339"},{"county":"Walker","stateadd":"TX","statefips":"48","countyfips":"471"},{"county":"Waller","stateadd":"TX","statefips":"48","countyfips":"473"},{"county":"Wharton","stateadd":"TX","statefips":"48","countyfips":"481"}],"fema_id":"4332","lat":29.77709639999999,"lon":-95.6194773},{"source_file":"2018DisasterSupp","eda_regional_office":"Austin","fain":"87905268","grantee_name":"Hidden Star Resources","grantee_city":"Austin","grantee_state":"Texas","project_state":"Texas","grant_purpose":"Technical Assistance Program","grant_award_date":"2018-09-18T00:00:00.000Z","award_amount":600000,"total_project_funding":750000,"statewide":0,"counties":[{"county":"Austin","stateadd":"TX","statefips":"48","countyfips":"015"},{"county":"Brazoria","stateadd":"TX","statefips":"48","countyfips":"039"},{"county":"Chambers","stateadd":"TX","statefips":"48","countyfips":"071"},{"county":"Colorado","stateadd":"TX","statefips":"48","countyfips":"089"},{"county":"Fort Bend","stateadd":"TX","statefips":"48","countyfips":"157"},{"county":"Galveston","stateadd":"TX","statefips":"48","countyfips":"167"},{"county":"Harris","stateadd":"TX","statefips":"48","countyfips":"201"},{"county":"Liberty","stateadd":"TX","statefips":"48","countyfips":"291"},{"county":"Matagorda","stateadd":"TX","statefips":"48","countyfips":"321"},{"county":"Montgomery","stateadd":"TX","statefips":"48","countyfips":"339"},{"county":"Walker","stateadd":"TX","statefips":"48","countyfips":"471"},{"county":"Waller","stateadd":"TX","statefips":"48","countyfips":"473"},{"county":"Wharton","stateadd":"TX","statefips":"48","countyfips":"481"}],"fema_id":"4332","lat":30.2719882,"lon":-97.8165281},{"source_file":"2018DisasterSupp","eda_regional_office":"Austin","fain":"87905274","grantee_name":"TruFund Financial Services, Inc","grantee_city":"New York","grantee_state":"New York","project_state":"Texas","grant_purpose":"Technical Assistance Program","grant_award_date":"2019-04-01T00:00:00.000Z","award_amount":1100000,"total_project_funding":1400000,"statewide":0,"counties":[{"county":"Austin","stateadd":"TX","statefips":"48","countyfips":"015"},{"county":"Brazoria","stateadd":"TX","statefips":"48","countyfips":"039"},{"county":"Chambers","stateadd":"TX","statefips":"48","countyfips":"071"},{"county":"Ft. Bend","stateadd":"TX","statefips":"48","countyfips":"157"},{"county":"Galveston","stateadd":"TX","statefips":"48","countyfips":"167"},{"county":"Harris","stateadd":"TX","statefips":"48","countyfips":"201"},{"county":"Liberty","stateadd":"TX","statefips":"48","countyfips":"291"},{"county":"Montgomery","stateadd":"TX","statefips":"48","countyfips":"339"},{"county":"Waller","stateadd":"TX","statefips":"48","countyfips":"473"}],"fema_id":"4332","lat":40.7514177,"lon":-73.98518299999999},{"source_file":"2018DisasterSupp","eda_regional_office":"Austin","fain":"87905280","grantee_name":"Texas Tech University","grantee_city":"Lubbock","grantee_state":"Texas","project_state":"Texas","grant_purpose":"Disaster Recovery and Resiliency Plan","grant_award_date":"2019-03-21T00:00:00.000Z","award_amount":750000,"total_project_funding":937591,"statewide":0,"counties":[{"county":"Aransas","stateadd":"TX","statefips":"48","countyfips":"007"},{"county":"Austin","stateadd":"TX","statefips":"48","countyfips":"015"},{"county":"Bastrop","stateadd":"TX","statefips":"48","countyfips":"021"},{"county":"Bee","stateadd":"TX","statefips":"48","countyfips":"025"},{"county":"Brazoria","stateadd":"TX","statefips":"48","countyfips":"039"},{"county":"Caldwell","stateadd":"TX","statefips":"48","countyfips":"055"},{"county":"Calhoun","stateadd":"TX","statefips":"48","countyfips":"057"},{"county":"Chambers","stateadd":"TX","statefips":"48","countyfips":"071"},{"county":"Colorado","stateadd":"TX","statefips":"48","countyfips":"089"},{"county":"DeWitt","stateadd":"TX"},{"county":"Fayette","stateadd":"TX","statefips":"48","countyfips":"149"},{"county":"Fort Bend","stateadd":"TX","statefips":"48","countyfips":"157"},{"county":"Galveston","stateadd":"TX","statefips":"48","countyfips":"167"},{"county":"Goliad","stateadd":"TX","statefips":"48","countyfips":"175"},{"county":"Gonzales","stateadd":"TX","statefips":"48","countyfips":"177"},{"county":"Grimes","stateadd":"TX","statefips":"48","countyfips":"185"},{"county":"Hardin","stateadd":"TX","statefips":"48","countyfips":"199"},{"county":"Harris","stateadd":"TX","statefips":"48","countyfips":"201"},{"county":"Jackson","stateadd":"TX","statefips":"48","countyfips":"239"},{"county":"Jasper","stateadd":"TX","statefips":"48","countyfips":"241"},{"county":"Jefferson","stateadd":"TX","statefips":"48","countyfips":"245"},{"county":"Karnes","stateadd":"TX","statefips":"48","countyfips":"255"},{"county":"Kleberg","stateadd":"TX","statefips":"48","countyfips":"273"},{"county":"Lavaca","stateadd":"TX","statefips":"48","countyfips":"285"},{"county":"Lee","stateadd":"TX","statefips":"48","countyfips":"287"},{"county":"Liberty","stateadd":"TX","statefips":"48","countyfips":"291"},{"county":"Matagorda","stateadd":"TX","statefips":"48","countyfips":"321"},{"county":"Montgomery","stateadd":"TX","statefips":"48","countyfips":"339"},{"county":"Newton","stateadd":"TX","statefips":"48","countyfips":"351"},{"county":"Nueces","stateadd":"TX","statefips":"48","countyfips":"355"},{"county":"Orange","stateadd":"TX","statefips":"48","countyfips":"361"},{"county":"Polk","stateadd":"TX","statefips":"48","countyfips":"373"},{"county":"Refugio","stateadd":"TX","statefips":"48","countyfips":"391"},{"county":"Sabine","stateadd":"TX","statefips":"48","countyfips":"403"},{"county":"San Jacinto","stateadd":"TX","statefips":"48","countyfips":"407"},{"county":"San Patricio","stateadd":"TX","statefips":"48","countyfips":"409"},{"county":"Tyler","stateadd":"TX","statefips":"48","countyfips":"457"},{"county":"Victoria","stateadd":"TX","statefips":"48","countyfips":"469"},{"county":"Walker","stateadd":"TX","statefips":"48","countyfips":"471"},{"county":"Waller","stateadd":"TX","statefips":"48","countyfips":"473"},{"county":"Wharton","stateadd":"TX","statefips":"48","countyfips":"481"}],"fema_id":"4332","lat":33.5842591,"lon":-101.8782822}],"disasters":[{"disasterNumber":398,"ihProgramDeclared":0,"iaProgramDeclared":1,"paProgramDeclared":1,"hmProgramDeclared":0,"state":"TX","statefips":"48","declarationDate":"1973-07-11T00:00:00.000Z","fyDeclared":"1973","disasterType":"DR","incidentType":"Flood","title":"SEVERE STORMS & FLOODING","incidentBeginDate":"1973-07-11T00:00:00.000Z","incidentEndDate":"1973-07-11T00:00:00.000Z","disasterCloseOutDate":"1976-09-16T00:00:00.000Z","declaredCountyArea":"Liberty (County)","placeCode":"99291","countyfips":"291","hash":"0c111c5f9556f2176ac4056e178ebd6b","latRefresh":"2019-07-26T18:09:00.265Z"},{"disasterNumber":580,"ihProgramDeclared":0,"iaProgramDeclared":1,"paProgramDeclared":1,"hmProgramDeclared":0,"state":"TX","statefips":"48","declarationDate":"1979-04-26T00:00:00.000Z","fyDeclared":"1979","disasterType":"DR","incidentType":"Severe Storm(s)","title":"SEVERE STORMS, TORNADOES & FLOODING","incidentBeginDate":"1979-04-26T00:00:00.000Z","incidentEndDate":"1979-04-26T00:00:00.000Z","disasterCloseOutDate":"1983-10-31T00:00:00.000Z","declaredCountyArea":"Liberty (County)","placeCode":"99291","countyfips":"291","hash":"dc043a40665f10fb524f2637d8b6e1dc","latRefresh":"2019-07-26T18:09:01.884Z"},{"disasterNumber":689,"ihProgramDeclared":0,"iaProgramDeclared":1,"paProgramDeclared":1,"hmProgramDeclared":0,"state":"TX","statefips":"48","declarationDate":"1983-08-19T00:00:00.000Z","fyDeclared":"1983","disasterType":"DR","incidentType":"Hurricane","title":"HURRICANE ALICIA","incidentBeginDate":"1983-08-18T00:00:00.000Z","incidentEndDate":"1983-08-20T00:00:00.000Z","disasterCloseOutDate":"1988-10-05T00:00:00.000Z","declaredCountyArea":"Liberty (County)","placeCode":"99291","countyfips":"291","hash":"f62eb1e4f3b6bc442ca8bcf8887aa6c6","latRefresh":"2019-07-26T18:09:02.523Z"},{"disasterNumber":828,"ihProgramDeclared":0,"iaProgramDeclared":1,"paProgramDeclared":1,"hmProgramDeclared":0,"state":"TX","statefips":"48","declarationDate":"1989-05-19T00:00:00.000Z","fyDeclared":"1989","disasterType":"DR","incidentType":"Severe Storm(s)","title":"SEVERE STORMS, TORNADOES & FLOODING","incidentBeginDate":"1989-05-04T00:00:00.000Z","incidentEndDate":"1989-06-07T00:00:00.000Z","disasterCloseOutDate":"1998-03-03T00:00:00.000Z","declaredCountyArea":"Liberty (County)","placeCode":"99291","countyfips":"291","hash":"67f9e78d52f9c927407c5b6695aab833","latRefresh":"2019-07-26T18:09:03.479Z"},{"disasterNumber":836,"ihProgramDeclared":0,"iaProgramDeclared":1,"paProgramDeclared":1,"hmProgramDeclared":0,"state":"TX","statefips":"48","declarationDate":"1989-07-18T00:00:00.000Z","fyDeclared":"1989","disasterType":"DR","incidentType":"Flood","title":"TROPICAL STORM ALLISON","incidentBeginDate":"1989-06-25T00:00:00.000Z","incidentEndDate":"1989-07-07T00:00:00.000Z","disasterCloseOutDate":"1994-10-24T00:00:00.000Z","declaredCountyArea":"Liberty (County)","placeCode":"99291","countyfips":"291","hash":"3b381981c65d4862e534ccf676d00ce5","latRefresh":"2019-07-26T18:09:03.609Z"},{"disasterNumber":863,"ihProgramDeclared":0,"iaProgramDeclared":1,"paProgramDeclared":0,"hmProgramDeclared":0,"state":"TX","statefips":"48","declarationDate":"1990-05-02T00:00:00.000Z","fyDeclared":"1990","disasterType":"DR","incidentType":"Severe Storm(s)","title":"SEVERE STORMS, TORNADOES & FLOODING","incidentBeginDate":"1990-04-15T00:00:00.000Z","incidentEndDate":"1990-05-29T00:00:00.000Z","disasterCloseOutDate":"2000-08-24T00:00:00.000Z","declaredCountyArea":"Liberty (County)","placeCode":"99291","countyfips":"291","hash":"13dd1363a975b2a93d58dcc7fd8e0492","latRefresh":"2019-07-26T18:09:03.914Z"},{"disasterNumber":930,"ihProgramDeclared":0,"iaProgramDeclared":1,"paProgramDeclared":1,"hmProgramDeclared":0,"state":"TX","statefips":"48","declarationDate":"1991-12-26T00:00:00.000Z","fyDeclared":"1992","disasterType":"DR","incidentType":"Flood","title":"SEVERE THUNDERSTORMS","incidentBeginDate":"1991-12-20T00:00:00.000Z","incidentEndDate":"1992-01-14T00:00:00.000Z","disasterCloseOutDate":"1999-10-22T00:00:00.000Z","declaredCountyArea":"Liberty (County)","placeCode":"99291","countyfips":"291","hash":"7b627c6dda331642831008059b529d2f","latRefresh":"2019-07-26T18:09:04.607Z"},{"disasterNumber":937,"ihProgramDeclared":0,"iaProgramDeclared":1,"paProgramDeclared":0,"hmProgramDeclared":0,"state":"TX","statefips":"48","declarationDate":"1992-03-20T00:00:00.000Z","fyDeclared":"1992","disasterType":"DR","incidentType":"Flood","title":"SEVERE STORMS & FLOODING","incidentBeginDate":"1992-03-04T00:00:00.000Z","incidentEndDate":"1992-03-30T00:00:00.000Z","disasterCloseOutDate":"1995-09-08T00:00:00.000Z","declaredCountyArea":"Liberty (County)","placeCode":"99291","countyfips":"291","hash":"663c20640a5047fe4509138e8a95bf5a","latRefresh":"2019-07-26T18:09:04.674Z"},{"disasterNumber":1041,"ihProgramDeclared":0,"iaProgramDeclared":1,"paProgramDeclared":1,"hmProgramDeclared":0,"state":"TX","statefips":"48","declarationDate":"1994-10-18T00:00:00.000Z","fyDeclared":"1995","disasterType":"DR","incidentType":"Flood","title":"SEVERE THUNDERSTORMS AND FLOODING","incidentBeginDate":"1994-10-14T00:00:00.000Z","incidentEndDate":"1994-11-08T00:00:00.000Z","disasterCloseOutDate":"2005-08-25T00:00:00.000Z","declaredCountyArea":"Liberty (County)","placeCode":"99291","countyfips":"291","hash":"55b5bdac0a45b9715a7c84b7656d55f0","latRefresh":"2019-07-26T18:09:06.040Z"},{"disasterNumber":3117,"ihProgramDeclared":0,"iaProgramDeclared":0,"paProgramDeclared":1,"hmProgramDeclared":0,"state":"TX","statefips":"48","declarationDate":"1996-02-23T00:00:00.000Z","fyDeclared":"1996","disasterType":"EM","incidentType":"Fire","title":"EXTREME  FIRE HAZARD","incidentBeginDate":"1996-02-23T00:00:00.000Z","incidentEndDate":"1996-09-19T00:00:00.000Z","disasterCloseOutDate":"1998-03-18T00:00:00.000Z","declaredCountyArea":"Liberty (County)","placeCode":"99291","countyfips":"291","hash":"f0131370f96534fa8e36098f90bc7914","latRefresh":"2019-07-26T18:09:23.285Z"},{"disasterNumber":1239,"ihProgramDeclared":0,"iaProgramDeclared":0,"paProgramDeclared":0,"hmProgramDeclared":1,"state":"TX","statefips":"48","declarationDate":"1998-08-26T15:50:08.000Z","fyDeclared":"1998","disasterType":"DR","incidentType":"Severe Storm(s)","title":"TROPICAL STORM CHARLEY","incidentBeginDate":"1998-08-22T13:55:00.000Z","incidentEndDate":"1998-08-31T12:00:00.000Z","disasterCloseOutDate":"2006-03-24T00:00:00.000Z","declaredCountyArea":"Statewide","placeCode":"0","countyfips":"000","hash":"80f00db491b442add7b18acc938b842a","latRefresh":"2019-07-26T18:09:09.350Z"},{"disasterNumber":1239,"ihProgramDeclared":0,"iaProgramDeclared":0,"paProgramDeclared":0,"hmProgramDeclared":1,"state":"TX","statefips":"48","declarationDate":"1998-08-26T15:50:08.000Z","fyDeclared":"1998","disasterType":"DR","incidentType":"Severe Storm(s)","title":"TROPICAL STORM CHARLEY","incidentBeginDate":"1998-08-22T13:55:00.000Z","incidentEndDate":"1998-08-31T12:00:00.000Z","disasterCloseOutDate":"2006-03-24T00:00:00.000Z","declaredCountyArea":"Liberty (County)","placeCode":"99291","countyfips":"291","hash":"d6174da259e52a5950fade6da39e4adb","latRefresh":"2019-07-26T18:09:09.284Z"},{"disasterNumber":1257,"ihProgramDeclared":0,"iaProgramDeclared":1,"paProgramDeclared":1,"hmProgramDeclared":0,"state":"TX","statefips":"48","declarationDate":"1998-10-21T20:04:00.000Z","fyDeclared":"1999","disasterType":"DR","incidentType":"Flood","title":"TX-FLOODING 10/18/98","incidentBeginDate":"1998-10-17T08:00:00.000Z","incidentEndDate":"1998-11-15T08:00:00.000Z","disasterCloseOutDate":"2012-06-19T00:00:00.000Z","declaredCountyArea":"Liberty (County)","placeCode":"99291","countyfips":"291","hash":"88e73588687f410a92c7d9bb91e6434b","latRefresh":"2019-07-26T18:09:09.604Z"},{"disasterNumber":3142,"ihProgramDeclared":0,"iaProgramDeclared":0,"paProgramDeclared":1,"hmProgramDeclared":0,"state":"TX","statefips":"48","declarationDate":"1999-09-01T16:50:00.000Z","fyDeclared":"1999","disasterType":"EM","incidentType":"Fire","title":"EXTREME FIRE HAZARDS","incidentBeginDate":"1999-08-01T12:00:00.000Z","incidentEndDate":"1999-12-10T00:00:00.000Z","disasterCloseOutDate":"2002-07-09T00:00:00.000Z","declaredCountyArea":"Liberty (County)","placeCode":"99291","countyfips":"291","hash":"77b0df1a43a88dcd635d6d1644b05ab6","latRefresh":"2019-07-26T18:09:23.620Z"},{"disasterNumber":2329,"ihProgramDeclared":0,"iaProgramDeclared":0,"paProgramDeclared":1,"hmProgramDeclared":0,"state":"TX","statefips":"48","declarationDate":"2000-09-04T10:25:00.000Z","fyDeclared":"2000","disasterType":"FS","incidentType":"Fire","title":"TX - STANLEY MAINLINE FIRE - 09/04/00","incidentBeginDate":"2000-09-04T08:38:00.000Z","incidentEndDate":"2000-09-08T09:25:00.000Z","disasterCloseOutDate":"2005-05-25T00:00:00.000Z","declaredCountyArea":"Liberty (County)","placeCode":"99291","countyfips":"291","hash":"1305341e0ed9b95cdf573397a0d237c6","latRefresh":"2019-07-26T18:09:20.610Z"},{"disasterNumber":1379,"ihProgramDeclared":0,"iaProgramDeclared":1,"paProgramDeclared":1,"hmProgramDeclared":1,"state":"TX","statefips":"48","declarationDate":"2001-06-09T11:00:00.000Z","fyDeclared":"2001","disasterType":"DR","incidentType":"Coastal Storm","title":"TX-TROPICAL STORM ALLISON-06-06-2001","incidentBeginDate":"2001-06-05T16:30:00.000Z","incidentEndDate":"2001-06-20T00:00:00.000Z","disasterCloseOutDate":null,"declaredCountyArea":"Liberty (County)","placeCode":"99291","countyfips":"291","hash":"90acc1c36d4055ab449051ef49d67547","latRefresh":"2019-10-10T19:56:49.322Z"},{"disasterNumber":1439,"ihProgramDeclared":1,"iaProgramDeclared":1,"paProgramDeclared":0,"hmProgramDeclared":0,"state":"TX","statefips":"48","declarationDate":"2002-11-05T00:00:00.000Z","fyDeclared":"2003","disasterType":"DR","incidentType":"Severe Storm(s)","title":"SEVERE STORMS, TORNADOES AND FLOODING","incidentBeginDate":"2002-10-24T17:30:00.000Z","incidentEndDate":"2002-11-15T00:00:00.000Z","disasterCloseOutDate":"2013-03-26T00:00:00.000Z","declaredCountyArea":"Liberty (County)","placeCode":"99291","countyfips":"291","hash":"703bd5c74dc559b8b21aea344c23076e","latRefresh":"2019-07-26T18:09:12.021Z"},{"disasterNumber":3216,"ihProgramDeclared":0,"iaProgramDeclared":0,"paProgramDeclared":1,"hmProgramDeclared":0,"state":"TX","statefips":"48","declarationDate":"2005-09-02T12:51:00.000Z","fyDeclared":"2005","disasterType":"EM","incidentType":"Hurricane","title":"HURRICANE KATRINA EVACUATION","incidentBeginDate":"2005-08-29T00:00:00.000Z","incidentEndDate":"2005-10-01T08:55:00.000Z","disasterCloseOutDate":"2014-07-01T00:00:00.000Z","declaredCountyArea":"Liberty (County)","placeCode":"99291","countyfips":"291","hash":"81570f4219e1b61d07c592a72dff4ba0","latRefresh":"2019-07-26T18:09:25.036Z"},{"disasterNumber":3261,"ihProgramDeclared":0,"iaProgramDeclared":0,"paProgramDeclared":0,"hmProgramDeclared":0,"state":"TX","statefips":"48","declarationDate":"2005-09-21T19:07:00.000Z","fyDeclared":"2005","disasterType":"EM","incidentType":"Hurricane","title":"HURRICANE RITA","incidentBeginDate":"2005-09-20T07:24:57.000Z","incidentEndDate":"2005-10-14T09:33:00.000Z","disasterCloseOutDate":"2013-08-12T00:00:00.000Z","declaredCountyArea":"Statewide","placeCode":"0","countyfips":"000","hash":"104e545ade544f715fd412231276c0aa","latRefresh":"2019-07-26T18:09:27.180Z"},{"disasterNumber":3261,"ihProgramDeclared":0,"iaProgramDeclared":0,"paProgramDeclared":1,"hmProgramDeclared":0,"state":"TX","statefips":"48","declarationDate":"2005-09-21T19:07:00.000Z","fyDeclared":"2005","disasterType":"EM","incidentType":"Hurricane","title":"HURRICANE RITA","incidentBeginDate":"2005-09-20T07:24:57.000Z","incidentEndDate":"2005-10-14T09:33:00.000Z","disasterCloseOutDate":"2013-08-12T00:00:00.000Z","declaredCountyArea":"Liberty (County)","placeCode":"99291","countyfips":"291","hash":"0ba3568fac083597aa7d8a2a40872e20","latRefresh":"2019-07-26T18:09:27.070Z"},{"disasterNumber":1606,"ihProgramDeclared":1,"iaProgramDeclared":1,"paProgramDeclared":1,"hmProgramDeclared":1,"state":"TX","statefips":"48","declarationDate":"2005-09-24T19:58:00.000Z","fyDeclared":"2005","disasterType":"DR","incidentType":"Hurricane","title":"HURRICANE RITA","incidentBeginDate":"2005-09-23T00:00:00.000Z","incidentEndDate":"2005-10-14T16:01:00.000Z","disasterCloseOutDate":null,"declaredCountyArea":"Liberty (County)","placeCode":"99291","countyfips":"291","hash":"210dc912b56f9d628b2f5a530e112ae6","latRefresh":"2019-10-10T19:56:52.038Z"},{"disasterNumber":1624,"ihProgramDeclared":0,"iaProgramDeclared":0,"paProgramDeclared":1,"hmProgramDeclared":1,"state":"TX","statefips":"48","declarationDate":"2006-01-11T19:13:00.000Z","fyDeclared":"2006","disasterType":"DR","incidentType":"Fire","title":"EXTREME WILDFIRE THREAT","incidentBeginDate":"2005-11-27T00:00:00.000Z","incidentEndDate":"2006-05-14T18:18:00.000Z","disasterCloseOutDate":"2015-10-14T23:59:00.000Z","declaredCountyArea":"Liberty (County)","placeCode":"99291","countyfips":"291","hash":"f251572ba69b99c51568830ec524e08c","latRefresh":"2019-07-26T18:09:15.417Z"},{"disasterNumber":1709,"ihProgramDeclared":1,"iaProgramDeclared":1,"paProgramDeclared":0,"hmProgramDeclared":1,"state":"TX","statefips":"48","declarationDate":"2007-06-29T16:14:00.000Z","fyDeclared":"2007","disasterType":"DR","incidentType":"Severe Storm(s)","title":"SEVERE STORMS, TORNADOES, AND FLOODING","incidentBeginDate":"2007-06-16T00:00:00.000Z","incidentEndDate":"2007-08-03T12:00:00.000Z","disasterCloseOutDate":"2019-03-29T23:59:00.000Z","declaredCountyArea":"Liberty (County)","placeCode":"99291","countyfips":"291","hash":"ecff03270fca94f21aab428875156aeb","latRefresh":"2019-07-26T18:09:16.385Z"},{"disasterNumber":3284,"ihProgramDeclared":0,"iaProgramDeclared":0,"paProgramDeclared":1,"hmProgramDeclared":0,"state":"TX","statefips":"48","declarationDate":"2008-03-14T00:00:00.000Z","fyDeclared":"2008","disasterType":"EM","incidentType":"Fire","title":"WILDFIRES","incidentBeginDate":"2008-03-14T00:00:00.000Z","incidentEndDate":"2008-09-01T00:00:00.000Z","disasterCloseOutDate":"2012-10-22T00:00:00.000Z","declaredCountyArea":"Liberty (County)","placeCode":"99291","countyfips":"291","hash":"3f5d7da8de10b5d4a8e9b55d1e1e1240","latRefresh":"2019-07-26T18:09:28.777Z"},{"disasterNumber":3290,"ihProgramDeclared":0,"iaProgramDeclared":0,"paProgramDeclared":1,"hmProgramDeclared":0,"state":"TX","statefips":"48","declarationDate":"2008-08-29T17:30:00.000Z","fyDeclared":"2008","disasterType":"EM","incidentType":"Hurricane","title":"HURRICANE GUSTAV","incidentBeginDate":"2008-08-27T00:00:00.000Z","incidentEndDate":"2008-09-07T00:00:00.000Z","disasterCloseOutDate":"2015-10-15T23:59:00.000Z","declaredCountyArea":"Liberty (County)","placeCode":"99291","countyfips":"291","hash":"87042c9734f7f91831644acc9c50015c","latRefresh":"2019-07-26T18:09:29.010Z"},{"disasterNumber":3294,"ihProgramDeclared":0,"iaProgramDeclared":0,"paProgramDeclared":1,"hmProgramDeclared":0,"state":"TX","statefips":"48","declarationDate":"2008-09-10T00:00:00.000Z","fyDeclared":"2008","disasterType":"EM","incidentType":"Hurricane","title":"HURRICANE IKE","incidentBeginDate":"2008-09-07T17:00:00.000Z","incidentEndDate":"2008-09-26T00:00:00.000Z","disasterCloseOutDate":"2015-05-27T00:00:00.000Z","declaredCountyArea":"Liberty (County)","placeCode":"99291","countyfips":"291","hash":"77940f982c785861400d2228e506b0d3","latRefresh":"2019-07-26T18:09:29.418Z"},{"disasterNumber":1791,"ihProgramDeclared":1,"iaProgramDeclared":1,"paProgramDeclared":1,"hmProgramDeclared":1,"state":"TX","statefips":"48","declarationDate":"2008-09-13T13:30:00.000Z","fyDeclared":"2008","disasterType":"DR","incidentType":"Hurricane","title":"HURRICANE IKE","incidentBeginDate":"2008-09-07T17:00:00.000Z","incidentEndDate":"2008-10-02T00:00:00.000Z","disasterCloseOutDate":null,"declaredCountyArea":"Liberty (County)","placeCode":"99291","countyfips":"291","hash":"1e1e5084fa7f5e3f35e0d348c3c857d7","latRefresh":"2019-10-10T19:56:53.813Z"},{"disasterNumber":4223,"ihProgramDeclared":1,"iaProgramDeclared":0,"paProgramDeclared":1,"hmProgramDeclared":1,"state":"TX","statefips":"48","declarationDate":"2015-05-29T23:02:00.000Z","fyDeclared":"2015","disasterType":"DR","incidentType":"Severe Storm(s)","title":"SEVERE STORMS, TORNADOES, STRAIGHT-LINE WINDS AND FLOODING","incidentBeginDate":"2015-05-04T00:00:00.000Z","incidentEndDate":"2015-06-22T23:59:00.000Z","disasterCloseOutDate":"","declaredCountyArea":"Liberty (County)","placeCode":"99291","countyfips":"291","hash":"d56abe949276b0fc13cff351cfc1512c","latRefresh":"2019-10-10T19:57:05.971Z"},{"disasterNumber":4245,"ihProgramDeclared":1,"iaProgramDeclared":0,"paProgramDeclared":1,"hmProgramDeclared":1,"state":"TX","statefips":"48","declarationDate":"2015-11-25T11:00:00.000Z","fyDeclared":"2016","disasterType":"DR","incidentType":"Severe Storm(s)","title":"SEVERE STORMS, TORNADOES, STRAIGHT-LINE WINDS, AND FLOODING","incidentBeginDate":"2015-10-22T00:00:00.000Z","incidentEndDate":"2015-10-31T00:00:00.000Z","disasterCloseOutDate":"","declaredCountyArea":"Liberty (County)","placeCode":"99291","countyfips":"291","hash":"dfad8bab80c3b29b03978c4e4a429312","latRefresh":"2019-10-10T19:57:06.239Z"},{"disasterNumber":4269,"ihProgramDeclared":1,"iaProgramDeclared":0,"paProgramDeclared":1,"hmProgramDeclared":1,"state":"TX","statefips":"48","declarationDate":"2016-04-25T15:46:00.000Z","fyDeclared":"2016","disasterType":"DR","incidentType":"Flood","title":"SEVERE STORMS AND FLOODING","incidentBeginDate":"2016-04-17T00:00:00.000Z","incidentEndDate":"2016-04-30T23:59:00.000Z","disasterCloseOutDate":"","declaredCountyArea":"Liberty (County)","placeCode":"99291","countyfips":"291","hash":"85f3f5a85f497feb83a38703f97bab40","latRefresh":"2019-10-10T19:57:06.738Z"},{"disasterNumber":4272,"ihProgramDeclared":1,"iaProgramDeclared":0,"paProgramDeclared":1,"hmProgramDeclared":1,"state":"TX","statefips":"48","declarationDate":"2016-06-11T13:23:00.000Z","fyDeclared":"2016","disasterType":"DR","incidentType":"Flood","title":"SEVERE STORMS AND FLOODING","incidentBeginDate":"2016-05-22T00:00:00.000Z","incidentEndDate":"2016-06-24T23:59:00.000Z","disasterCloseOutDate":"","declaredCountyArea":"Liberty (County)","placeCode":"99291","countyfips":"291","hash":"6d43b2f46d6c5416431edf7949a8a1e6","latRefresh":"2019-10-10T19:57:06.808Z"},{"disasterNumber":4332,"ihProgramDeclared":1,"iaProgramDeclared":0,"paProgramDeclared":1,"hmProgramDeclared":1,"state":"TX","statefips":"48","declarationDate":"2017-08-25T21:35:00.000Z","fyDeclared":"2017","disasterType":"DR","incidentType":"Hurricane","title":"HURRICANE HARVEY","incidentBeginDate":"2017-08-23T08:09:52.000Z","incidentEndDate":"2017-09-15T23:59:00.000Z","disasterCloseOutDate":"","declaredCountyArea":"Liberty (County)","placeCode":"99291","countyfips":"291","hash":"9832ea8fe498c62fa01feb609ec770bd","latRefresh":"2019-10-10T19:57:07.418Z"},{"disasterNumber":4466,"ihProgramDeclared":1,"iaProgramDeclared":0,"paProgramDeclared":0,"hmProgramDeclared":1,"state":"TX","statefips":"48","declarationDate":"2019-10-04T14:25:00.000Z","fyDeclared":"2020","disasterType":"DR","incidentType":"Flood","title":"TROPICAL STORM IMELDA","incidentBeginDate":"2019-09-17T08:00:00.000Z","incidentEndDate":"2019-09-23T08:00:00.000Z","disasterCloseOutDate":"","declaredCountyArea":"Liberty (County)","placeCode":"99291","countyfips":"291","hash":"28cd57c821103abbea1c31be86542365","latRefresh":"2019-10-10T19:57:09.290Z"},{"disasterNumber":3458,"ihProgramDeclared":0,"iaProgramDeclared":0,"paProgramDeclared":1,"hmProgramDeclared":0,"state":"TX","statefips":"48","declarationDate":"2020-03-13T16:00:00.000Z","fyDeclared":"2020","disasterType":"EM","incidentType":"Biological","title":"COVID-19","incidentBeginDate":"2020-01-20T14:00:00.000Z","incidentEndDate":"","disasterCloseOutDate":"","declaredCountyArea":"Liberty (County)","placeCode":"99291","countyfips":"291","hash":"b47e434fbe41d8e936cfa07e72ae4998","latRefresh":"2020-03-16T15:20:58.963Z"},{"disasterNumber":4485,"ihProgramDeclared":1,"iaProgramDeclared":0,"paProgramDeclared":1,"hmProgramDeclared":0,"state":"TX","statefips":"48","declarationDate":"2020-03-25T12:10:00.000Z","fyDeclared":"2020","disasterType":"DR","incidentType":"Biological","title":"COVID-19 PANDEMIC","incidentBeginDate":"2020-01-20T14:00:00.000Z","incidentEndDate":"","disasterCloseOutDate":"","declaredCountyArea":"Liberty (County)","placeCode":"99291","countyfips":"291","hash":"b5fbe2fab3f77ea5529352bf179f925b","latRefresh":"2020-03-25T17:40:57.108Z"}],"storms":{"Tornado":{"1957":2,"1958":1,"1961":1,"1967":4,"1972":2,"1973":1,"1974":1,"1976":2,"1977":1,"1979":1,"1982":1,"1983":3,"1992":3,"1993":3,"1995":10,"1997":3,"1998":2,"2009":1,"2011":3,"2014":3,"2017":1},"Thunderstorm Wind":{"1963":1,"1964":1,"1975":1,"1981":4,"1983":2,"1984":1,"1985":2,"1986":3,"1987":3,"1988":2,"1989":1,"1990":3,"1991":1,"1992":3,"1993":4,"1994":2,"1995":10,"1996":3,"1997":6,"1998":3,"2007":2,"2008":1,"2009":4,"2010":2,"2011":8,"2012":2,"2013":5,"2014":2,"2015":1,"2016":1,"2017":3,"2019":4},"Hail":{"1974":1,"1980":2,"1981":1,"1983":2,"1985":2,"1986":1,"1988":1,"1989":1,"1990":1,"1994":1,"1995":7,"1996":3,"1997":2,"1998":4,"2007":2,"2008":2,"2009":7,"2010":1,"2011":2,"2012":1,"2013":2,"2014":1,"2015":1,"2016":1,"2017":1,"2019":1},"Flash Flood":{"1996":1,"1997":3,"1998":11,"2008":1,"2012":1,"2014":1,"2015":5,"2016":1,"2017":3,"2018":1},"Lightning":{"2007":1},"Funnel Cloud":{"2007":1,"2015":1}},"bvis":[{"year":2012,"county":48291,"estab_total":1046,"estab_vuln_total":96,"mm_employees":11846,"emp_vuln_total":1164},{"year":2013,"county":48291,"estab_total":1031,"estab_vuln_total":92,"mm_employees":12382,"emp_vuln_total":1200},{"year":2014,"county":48291,"estab_total":1060,"estab_vuln_total":90,"mm_employees":13274,"emp_vuln_total":1313},{"year":2015,"county":48291,"estab_total":1049,"estab_vuln_total":92,"mm_employees":12787,"emp_vuln_total":1404},{"year":2016,"county":48291,"estab_total":1057,"estab_vuln_total":95,"mm_employees":12556,"emp_vuln_total":1510},{"year":2017,"county":48291,"estab_total":1072,"estab_vuln_total":75,"mm_employees":12579,"emp_vuln_total":1342}]}