{"demo":[{"group":312,"value":25013},{"group":313,"value":69500},{"group":314,"value":29270},{"group":315,"value":101540},{"group":316,"value":88696},{"group":317,"value":39980}],"population":353999,"cutter":{"SOC":{"id":"1","name":"Social Resilience","sources":[{"id":"11","name":"Educational Equity","states":0.041,"us":0.074,"county":0.0771},{"id":"12","name":"Age","states":0.732,"us":0.721,"county":0.8566},{"id":"13","name":"Transportation Access","states":0.931,"us":0.916,"county":0.9564},{"id":"14","name":"Communication Capacity","states":0.884,"us":0.873,"county":0.883},{"id":"15","name":"Language Capacity","states":0.722,"us":0.903,"county":0.7302},{"id":"16","name":"Special Needs","states":0.653,"us":0.657,"county":0.8503},{"id":"17","name":"Health Coverage","states":0.602,"us":0.762,"county":0.7226}],"aggregate":{"us":0.700857142857143,"state":0.6521428571428572,"county":0.7251714285714286}},"ECON":{"id":"2","name":"Economic Resilience","sources":[{"id":"21","name":"Housing Capital","states":0.605,"us":0.641,"county":0.7277},{"id":"22","name":"Employment","states":0.458,"us":0.489,"county":0.5387},{"id":"23","name":"Income and Equality (GINI Coeffecient)","states":0.549,"us":0.598,"county":0.6616},{"id":"24","name":"Single Sector Employment Dependence","states":0.935,"us":0.982,"county":0.9936},{"id":"25","name":"Employment (Female)","states":0.48,"us":0.536,"county":0.627},{"id":"26","name":"Business Size","states":0.005,"us":0.007,"county":0.0102},{"id":"27","name":"Health Access","states":0.118,"us":0.125,"county":0.0936}],"aggregate":{"us":0.4825714285714286,"state":0.45,"county":0.5217714285714286}},"INST":{"id":"3","name":"Institutional Resilience","sources":[{"id":"31","name":"Mitigation - Hazard Mitigation Plan Coverage","us":null,"county":null},{"id":"32","name":"Flood Coverage","states":0.02,"us":0.014,"county":0.1373},{"id":"33","name":"Municipal Services","us":null,"county":null},{"id":"34","name":"Mitigation - CRS Flood","us":null,"county":null},{"id":"35","name":"Political Fragmentation","us":null,"county":null},{"id":"36","name":"Previous Disaster Experience","states":0.205,"us":0.211,"county":0.3077},{"id":"37","name":"Mitigation and Social Connectivity","us":null,"county":null},{"id":"38","name":"Mitigation - Storm Ready Communities","us":null,"county":null}],"aggregate":{"us":0.1125,"state":0.11249999999999999,"county":0.22249999999999998}},"IHFR":{"id":"4","name":"Infrastructure Resilience","sources":[{"id":"41","name":"Housing Type","states":0.754,"us":0.797,"county":0.8297},{"id":"42","name":"Shelter Capacity","states":0.17,"us":0.184,"county":0.2824},{"id":"43","name":"Medical Capacity","states":0.005,"us":0.003,"county":0},{"id":"44","name":"Access/Evacuation Potential","states":0.006,"us":0.009,"county":0.0081},{"id":"45","name":"Housing Age","states":0.461,"us":0.459,"county":0.534},{"id":"46","name":"Sheltering Need","states":0.001,"us":0.002,"county":0.0018},{"id":"47","name":"Recovery (Schools)","states":0.001,"us":0.003,"county":0.0006}],"aggregate":{"us":0.20814285714285716,"state":0.1997142857142857,"county":0.23665714285714284}},"COMM":{"id":"5","name":"Community Capital","sources":[{"id":"51","name":"Place Attachment - Migration","states":0.818,"us":0.912,"county":0.7449},{"id":"52","name":"Place Attachment - Born","states":0.72,"us":0.671,"county":0.6318},{"id":"53","name":"Political Engagement","states":0.313,"us":0.404,"county":0.2955},{"id":"54","name":"Social Capital - Religion","states":0.202,"us":0.186,"county":0.0974},{"id":"55","name":"Social Capital - Civic Involvement","states":0.055,"us":0.089,"county":0.0276},{"id":"56","name":"Social Capital - Advocacy","states":0.01,"us":0.016,"county":0.0057},{"id":"57","name":"Innovation","states":0.032,"us":0.034,"county":0.0314}],"aggregate":{"us":0.33028571428571424,"state":0.3071428571428571,"county":0.2620428571428572}},"FLOR":{"id":"100","name":"Special/Custom","sources":[{"id":"101","name":"Business Vulnerability","us":null,"county":null},{"id":"102","name":"Flood Zone","us":null,"county":null},{"id":"103","name":"Commuting","us":null,"county":null},{"id":"104","name":"Housing Construction","us":null,"county":null},{"id":"105","name":"Second Stage Businesses","states":0.507,"us":0.487,"county":0.5989},{"id":"106","name":"Households with Broadband Access","states":0.605,"us":0.645,"county":0.8097}],"aggregate":{"us":0.5660000000000001,"state":0.556,"county":0.7042999999999999}}},"statefips":"48","countyfips":"039","county":"Brazoria","state":"Texas","area":1357.701,"eda2018":[{"source_file":"2018DisasterSupp","eda_regional_office":"Austin","fain":"87905237","grantee_name":"Gulf Coast Economic Development District","grantee_city":"Houston","grantee_state":"Texas","project_state":"Texas","grant_purpose":"Disaster Recovery Coordinator","grant_award_date":"2018-06-18T00:00:00.000Z","award_amount":240000,"total_project_funding":300000,"statewide":0,"counties":[{"county":"Austin","stateadd":"TX","statefips":"48","countyfips":"015"},{"county":"Brazoria","stateadd":"TX","statefips":"48","countyfips":"039"},{"county":"Chambers","stateadd":"TX","statefips":"48","countyfips":"071"},{"county":"Colorado","stateadd":"TX","statefips":"48","countyfips":"089"},{"county":"Fort Bend","stateadd":"TX","statefips":"48","countyfips":"157"},{"county":"Galveston","stateadd":"TX","statefips":"48","countyfips":"167"},{"county":"Harris","stateadd":"TX","statefips":"48","countyfips":"201"},{"county":"Liberty","stateadd":"TX","statefips":"48","countyfips":"291"},{"county":"Matagorda","stateadd":"TX","statefips":"48","countyfips":"321"},{"county":"Montgomery","stateadd":"TX","statefips":"48","countyfips":"339"},{"county":"Walker","stateadd":"TX","statefips":"48","countyfips":"471"},{"county":"Waller","stateadd":"TX","statefips":"48","countyfips":"473"},{"county":"Wharton","stateadd":"TX","statefips":"48","countyfips":"481"}],"fema_id":"4332","lat":29.77709639999999,"lon":-95.6194773},{"source_file":"2018DisasterSupp","eda_regional_office":"Austin","fain":"87905268","grantee_name":"Hidden Star Resources","grantee_city":"Austin","grantee_state":"Texas","project_state":"Texas","grant_purpose":"Technical Assistance Program","grant_award_date":"2018-09-18T00:00:00.000Z","award_amount":600000,"total_project_funding":750000,"statewide":0,"counties":[{"county":"Austin","stateadd":"TX","statefips":"48","countyfips":"015"},{"county":"Brazoria","stateadd":"TX","statefips":"48","countyfips":"039"},{"county":"Chambers","stateadd":"TX","statefips":"48","countyfips":"071"},{"county":"Colorado","stateadd":"TX","statefips":"48","countyfips":"089"},{"county":"Fort Bend","stateadd":"TX","statefips":"48","countyfips":"157"},{"county":"Galveston","stateadd":"TX","statefips":"48","countyfips":"167"},{"county":"Harris","stateadd":"TX","statefips":"48","countyfips":"201"},{"county":"Liberty","stateadd":"TX","statefips":"48","countyfips":"291"},{"county":"Matagorda","stateadd":"TX","statefips":"48","countyfips":"321"},{"county":"Montgomery","stateadd":"TX","statefips":"48","countyfips":"339"},{"county":"Walker","stateadd":"TX","statefips":"48","countyfips":"471"},{"county":"Waller","stateadd":"TX","statefips":"48","countyfips":"473"},{"county":"Wharton","stateadd":"TX","statefips":"48","countyfips":"481"}],"fema_id":"4332","lat":30.2719882,"lon":-97.8165281},{"source_file":"2018DisasterSupp","eda_regional_office":"Austin","fain":"87905274","grantee_name":"TruFund Financial Services, Inc","grantee_city":"New York","grantee_state":"New York","project_state":"Texas","grant_purpose":"Technical Assistance Program","grant_award_date":"2019-04-01T00:00:00.000Z","award_amount":1100000,"total_project_funding":1400000,"statewide":0,"counties":[{"county":"Austin","stateadd":"TX","statefips":"48","countyfips":"015"},{"county":"Brazoria","stateadd":"TX","statefips":"48","countyfips":"039"},{"county":"Chambers","stateadd":"TX","statefips":"48","countyfips":"071"},{"county":"Ft. Bend","stateadd":"TX","statefips":"48","countyfips":"157"},{"county":"Galveston","stateadd":"TX","statefips":"48","countyfips":"167"},{"county":"Harris","stateadd":"TX","statefips":"48","countyfips":"201"},{"county":"Liberty","stateadd":"TX","statefips":"48","countyfips":"291"},{"county":"Montgomery","stateadd":"TX","statefips":"48","countyfips":"339"},{"county":"Waller","stateadd":"TX","statefips":"48","countyfips":"473"}],"fema_id":"4332","lat":40.7514177,"lon":-73.98518299999999},{"source_file":"2018DisasterSupp","eda_regional_office":"Austin","fain":"87905280","grantee_name":"Texas Tech University","grantee_city":"Lubbock","grantee_state":"Texas","project_state":"Texas","grant_purpose":"Disaster Recovery and Resiliency Plan","grant_award_date":"2019-03-21T00:00:00.000Z","award_amount":750000,"total_project_funding":937591,"statewide":0,"counties":[{"county":"Aransas","stateadd":"TX","statefips":"48","countyfips":"007"},{"county":"Austin","stateadd":"TX","statefips":"48","countyfips":"015"},{"county":"Bastrop","stateadd":"TX","statefips":"48","countyfips":"021"},{"county":"Bee","stateadd":"TX","statefips":"48","countyfips":"025"},{"county":"Brazoria","stateadd":"TX","statefips":"48","countyfips":"039"},{"county":"Caldwell","stateadd":"TX","statefips":"48","countyfips":"055"},{"county":"Calhoun","stateadd":"TX","statefips":"48","countyfips":"057"},{"county":"Chambers","stateadd":"TX","statefips":"48","countyfips":"071"},{"county":"Colorado","stateadd":"TX","statefips":"48","countyfips":"089"},{"county":"DeWitt","stateadd":"TX"},{"county":"Fayette","stateadd":"TX","statefips":"48","countyfips":"149"},{"county":"Fort Bend","stateadd":"TX","statefips":"48","countyfips":"157"},{"county":"Galveston","stateadd":"TX","statefips":"48","countyfips":"167"},{"county":"Goliad","stateadd":"TX","statefips":"48","countyfips":"175"},{"county":"Gonzales","stateadd":"TX","statefips":"48","countyfips":"177"},{"county":"Grimes","stateadd":"TX","statefips":"48","countyfips":"185"},{"county":"Hardin","stateadd":"TX","statefips":"48","countyfips":"199"},{"county":"Harris","stateadd":"TX","statefips":"48","countyfips":"201"},{"county":"Jackson","stateadd":"TX","statefips":"48","countyfips":"239"},{"county":"Jasper","stateadd":"TX","statefips":"48","countyfips":"241"},{"county":"Jefferson","stateadd":"TX","statefips":"48","countyfips":"245"},{"county":"Karnes","stateadd":"TX","statefips":"48","countyfips":"255"},{"county":"Kleberg","stateadd":"TX","statefips":"48","countyfips":"273"},{"county":"Lavaca","stateadd":"TX","statefips":"48","countyfips":"285"},{"county":"Lee","stateadd":"TX","statefips":"48","countyfips":"287"},{"county":"Liberty","stateadd":"TX","statefips":"48","countyfips":"291"},{"county":"Matagorda","stateadd":"TX","statefips":"48","countyfips":"321"},{"county":"Montgomery","stateadd":"TX","statefips":"48","countyfips":"339"},{"county":"Newton","stateadd":"TX","statefips":"48","countyfips":"351"},{"county":"Nueces","stateadd":"TX","statefips":"48","countyfips":"355"},{"county":"Orange","stateadd":"TX","statefips":"48","countyfips":"361"},{"county":"Polk","stateadd":"TX","statefips":"48","countyfips":"373"},{"county":"Refugio","stateadd":"TX","statefips":"48","countyfips":"391"},{"county":"Sabine","stateadd":"TX","statefips":"48","countyfips":"403"},{"county":"San Jacinto","stateadd":"TX","statefips":"48","countyfips":"407"},{"county":"San Patricio","stateadd":"TX","statefips":"48","countyfips":"409"},{"county":"Tyler","stateadd":"TX","statefips":"48","countyfips":"457"},{"county":"Victoria","stateadd":"TX","statefips":"48","countyfips":"469"},{"county":"Walker","stateadd":"TX","statefips":"48","countyfips":"471"},{"county":"Waller","stateadd":"TX","statefips":"48","countyfips":"473"},{"county":"Wharton","stateadd":"TX","statefips":"48","countyfips":"481"}],"fema_id":"4332","lat":33.5842591,"lon":-101.8782822}],"disasters":[{"disasterNumber":398,"ihProgramDeclared":0,"iaProgramDeclared":1,"paProgramDeclared":1,"hmProgramDeclared":0,"state":"TX","statefips":"48","declarationDate":"1973-07-11T00:00:00.000Z","fyDeclared":"1973","disasterType":"DR","incidentType":"Flood","title":"SEVERE STORMS & FLOODING","incidentBeginDate":"1973-07-11T00:00:00.000Z","incidentEndDate":"1973-07-11T00:00:00.000Z","disasterCloseOutDate":"1976-09-16T00:00:00.000Z","declaredCountyArea":"Brazoria (County)","placeCode":"99039","countyfips":"039","hash":"7b1b7518ccda23e86aee252cac1d6926","latRefresh":"2019-07-26T18:09:00.263Z"},{"disasterNumber":595,"ihProgramDeclared":0,"iaProgramDeclared":1,"paProgramDeclared":1,"hmProgramDeclared":0,"state":"TX","statefips":"48","declarationDate":"1979-07-28T00:00:00.000Z","fyDeclared":"1979","disasterType":"DR","incidentType":"Flood","title":"STORMS & FLASH FLOODS","incidentBeginDate":"1979-07-28T00:00:00.000Z","incidentEndDate":"1979-07-28T00:00:00.000Z","disasterCloseOutDate":"1983-10-31T00:00:00.000Z","declaredCountyArea":"Brazoria (County)","placeCode":"99039","countyfips":"039","hash":"1dc0bc2ec7b05f7d96efd774c4989a7e","latRefresh":"2019-07-26T18:09:02.019Z"},{"disasterNumber":603,"ihProgramDeclared":0,"iaProgramDeclared":1,"paProgramDeclared":1,"hmProgramDeclared":0,"state":"TX","statefips":"48","declarationDate":"1979-09-25T00:00:00.000Z","fyDeclared":"1979","disasterType":"DR","incidentType":"Flood","title":"SEVERE STORMS & FLOODING","incidentBeginDate":"1979-09-25T00:00:00.000Z","incidentEndDate":"1979-09-25T00:00:00.000Z","disasterCloseOutDate":"1982-08-18T00:00:00.000Z","declaredCountyArea":"Brazoria (County)","placeCode":"99039","countyfips":"039","hash":"bbd8e45390dd177446764185786d570d","latRefresh":"2019-07-26T18:09:02.154Z"},{"disasterNumber":689,"ihProgramDeclared":0,"iaProgramDeclared":1,"paProgramDeclared":1,"hmProgramDeclared":0,"state":"TX","statefips":"48","declarationDate":"1983-08-19T00:00:00.000Z","fyDeclared":"1983","disasterType":"DR","incidentType":"Hurricane","title":"HURRICANE ALICIA","incidentBeginDate":"1983-08-18T00:00:00.000Z","incidentEndDate":"1983-08-20T00:00:00.000Z","disasterCloseOutDate":"1988-10-05T00:00:00.000Z","declaredCountyArea":"Brazoria (County)","placeCode":"99039","countyfips":"039","hash":"aa51ec5855c4786beaf4f7310fc1f412","latRefresh":"2019-07-26T18:09:02.522Z"},{"disasterNumber":900,"ihProgramDeclared":0,"iaProgramDeclared":1,"paProgramDeclared":0,"hmProgramDeclared":0,"state":"TX","statefips":"48","declarationDate":"1991-04-12T00:00:00.000Z","fyDeclared":"1991","disasterType":"DR","incidentType":"Severe Storm(s)","title":"SEVERE STORMS, TORNADOES & FLOODING","incidentBeginDate":"1991-04-05T00:00:00.000Z","incidentEndDate":"1991-04-06T00:00:00.000Z","disasterCloseOutDate":"1997-04-16T00:00:00.000Z","declaredCountyArea":"Brazoria (County)","placeCode":"99039","countyfips":"039","hash":"17d303192b6676b7abe40d4b4159fc1d","latRefresh":"2019-07-26T18:09:04.344Z"},{"disasterNumber":930,"ihProgramDeclared":0,"iaProgramDeclared":1,"paProgramDeclared":1,"hmProgramDeclared":0,"state":"TX","statefips":"48","declarationDate":"1991-12-26T00:00:00.000Z","fyDeclared":"1992","disasterType":"DR","incidentType":"Flood","title":"SEVERE THUNDERSTORMS","incidentBeginDate":"1991-12-20T00:00:00.000Z","incidentEndDate":"1992-01-14T00:00:00.000Z","disasterCloseOutDate":"1999-10-22T00:00:00.000Z","declaredCountyArea":"Brazoria (County)","placeCode":"99039","countyfips":"039","hash":"ebb77a115a59c8d33fde9cdf261a6b36","latRefresh":"2019-07-26T18:09:04.612Z"},{"disasterNumber":1041,"ihProgramDeclared":0,"iaProgramDeclared":1,"paProgramDeclared":0,"hmProgramDeclared":0,"state":"TX","statefips":"48","declarationDate":"1994-10-18T00:00:00.000Z","fyDeclared":"1995","disasterType":"DR","incidentType":"Flood","title":"SEVERE THUNDERSTORMS AND FLOODING","incidentBeginDate":"1994-10-14T00:00:00.000Z","incidentEndDate":"1994-11-08T00:00:00.000Z","disasterCloseOutDate":"2005-08-25T00:00:00.000Z","declaredCountyArea":"Brazoria (County)","placeCode":"99039","countyfips":"039","hash":"a7d48f2ec3463474aeb873070a4cc993","latRefresh":"2019-07-26T18:09:06.044Z"},{"disasterNumber":1239,"ihProgramDeclared":0,"iaProgramDeclared":0,"paProgramDeclared":0,"hmProgramDeclared":1,"state":"TX","statefips":"48","declarationDate":"1998-08-26T15:50:08.000Z","fyDeclared":"1998","disasterType":"DR","incidentType":"Severe Storm(s)","title":"TROPICAL STORM CHARLEY","incidentBeginDate":"1998-08-22T13:55:00.000Z","incidentEndDate":"1998-08-31T12:00:00.000Z","disasterCloseOutDate":"2006-03-24T00:00:00.000Z","declaredCountyArea":"Brazoria (County)","placeCode":"99039","countyfips":"039","hash":"0ab38dd077c64fd80d40349dbc1ccb3c","latRefresh":"2019-07-26T18:09:09.140Z"},{"disasterNumber":1245,"ihProgramDeclared":0,"iaProgramDeclared":1,"paProgramDeclared":1,"hmProgramDeclared":0,"state":"TX","statefips":"48","declarationDate":"1998-09-23T00:00:00.000Z","fyDeclared":"1998","disasterType":"DR","incidentType":"Severe Storm(s)","title":"HURRICANE GEORGES - TEXAS","incidentBeginDate":"1998-09-09T00:00:00.000Z","incidentEndDate":"1998-10-05T00:00:00.000Z","disasterCloseOutDate":"2005-08-25T00:00:00.000Z","declaredCountyArea":"Brazoria (County)","placeCode":"99039","countyfips":"039","hash":"56a1dba86f9e521ca6d9e562455c7a40","latRefresh":"2019-07-26T18:09:09.409Z"},{"disasterNumber":1257,"ihProgramDeclared":0,"iaProgramDeclared":1,"paProgramDeclared":0,"hmProgramDeclared":0,"state":"TX","statefips":"48","declarationDate":"1998-10-21T20:04:00.000Z","fyDeclared":"1999","disasterType":"DR","incidentType":"Flood","title":"TX-FLOODING 10/18/98","incidentBeginDate":"1998-10-17T08:00:00.000Z","incidentEndDate":"1998-11-15T08:00:00.000Z","disasterCloseOutDate":"2012-06-19T00:00:00.000Z","declaredCountyArea":"Brazoria (County)","placeCode":"99039","countyfips":"039","hash":"8b19094c7aaa77248699b62fa0cd7593","latRefresh":"2019-07-26T18:09:09.531Z"},{"disasterNumber":3142,"ihProgramDeclared":0,"iaProgramDeclared":0,"paProgramDeclared":1,"hmProgramDeclared":0,"state":"TX","statefips":"48","declarationDate":"1999-09-01T16:50:00.000Z","fyDeclared":"1999","disasterType":"EM","incidentType":"Fire","title":"EXTREME FIRE HAZARDS","incidentBeginDate":"1999-08-01T12:00:00.000Z","incidentEndDate":"1999-12-10T00:00:00.000Z","disasterCloseOutDate":"2002-07-09T00:00:00.000Z","declaredCountyArea":"Brazoria (County)","placeCode":"99039","countyfips":"039","hash":"b56ed9f5737949b8903f16c47a6214db","latRefresh":"2019-07-26T18:09:23.556Z"},{"disasterNumber":1379,"ihProgramDeclared":0,"iaProgramDeclared":1,"paProgramDeclared":1,"hmProgramDeclared":1,"state":"TX","statefips":"48","declarationDate":"2001-06-09T11:00:00.000Z","fyDeclared":"2001","disasterType":"DR","incidentType":"Coastal Storm","title":"TX-TROPICAL STORM ALLISON-06-06-2001","incidentBeginDate":"2001-06-05T16:30:00.000Z","incidentEndDate":"2001-06-20T00:00:00.000Z","disasterCloseOutDate":null,"declaredCountyArea":"Brazoria (County)","placeCode":"99039","countyfips":"039","hash":"69961c1bf1d1bc45f5389f2175c7f92c","latRefresh":"2019-10-10T19:56:49.322Z"},{"disasterNumber":1434,"ihProgramDeclared":0,"iaProgramDeclared":1,"paProgramDeclared":0,"hmProgramDeclared":1,"state":"TX","statefips":"48","declarationDate":"2002-09-26T15:00:00.000Z","fyDeclared":"2002","disasterType":"DR","incidentType":"Coastal Storm","title":"TROPICAL STORM FAY","incidentBeginDate":"2002-09-06T00:00:00.000Z","incidentEndDate":"2002-09-30T00:00:00.000Z","disasterCloseOutDate":"2009-08-14T00:00:00.000Z","declaredCountyArea":"Brazoria (County)","placeCode":"99039","countyfips":"039","hash":"0fdbc6a2390a50e30d6d85b3e1b0d9df","latRefresh":"2019-07-26T18:09:12.022Z"},{"disasterNumber":1439,"ihProgramDeclared":1,"iaProgramDeclared":1,"paProgramDeclared":0,"hmProgramDeclared":0,"state":"TX","statefips":"48","declarationDate":"2002-11-05T00:00:00.000Z","fyDeclared":"2003","disasterType":"DR","incidentType":"Severe Storm(s)","title":"SEVERE STORMS, TORNADOES AND FLOODING","incidentBeginDate":"2002-10-24T17:30:00.000Z","incidentEndDate":"2002-11-15T00:00:00.000Z","disasterCloseOutDate":"2013-03-26T00:00:00.000Z","declaredCountyArea":"Brazoria (County)","placeCode":"99039","countyfips":"039","hash":"75ada88c165a98cca0cef07c6b2077d4","latRefresh":"2019-07-26T18:09:12.018Z"},{"disasterNumber":1479,"ihProgramDeclared":1,"iaProgramDeclared":1,"paProgramDeclared":1,"hmProgramDeclared":1,"state":"TX","statefips":"48","declarationDate":"2003-07-17T00:00:00.000Z","fyDeclared":"2003","disasterType":"DR","incidentType":"Hurricane","title":"HURRICANE CLAUDETTE","incidentBeginDate":"2003-07-15T08:30:00.000Z","incidentEndDate":"2003-07-28T00:00:00.000Z","disasterCloseOutDate":"2015-06-08T23:59:00.000Z","declaredCountyArea":"Brazoria (County)","placeCode":"99039","countyfips":"039","hash":"fc867ae5e33eeeca36622c218d2b4de3","latRefresh":"2019-07-26T18:09:12.783Z"},{"disasterNumber":3216,"ihProgramDeclared":0,"iaProgramDeclared":0,"paProgramDeclared":1,"hmProgramDeclared":0,"state":"TX","statefips":"48","declarationDate":"2005-09-02T12:51:00.000Z","fyDeclared":"2005","disasterType":"EM","incidentType":"Hurricane","title":"HURRICANE KATRINA EVACUATION","incidentBeginDate":"2005-08-29T00:00:00.000Z","incidentEndDate":"2005-10-01T08:55:00.000Z","disasterCloseOutDate":"2014-07-01T00:00:00.000Z","declaredCountyArea":"Brazoria (County)","placeCode":"99039","countyfips":"039","hash":"ca7404ee78174448bdba1d434fd2ee55","latRefresh":"2019-07-26T18:09:25.031Z"},{"disasterNumber":3261,"ihProgramDeclared":0,"iaProgramDeclared":0,"paProgramDeclared":1,"hmProgramDeclared":0,"state":"TX","statefips":"48","declarationDate":"2005-09-21T19:07:00.000Z","fyDeclared":"2005","disasterType":"EM","incidentType":"Hurricane","title":"HURRICANE RITA","incidentBeginDate":"2005-09-20T07:24:57.000Z","incidentEndDate":"2005-10-14T09:33:00.000Z","disasterCloseOutDate":"2013-08-12T00:00:00.000Z","declaredCountyArea":"Brazoria (County)","placeCode":"99039","countyfips":"039","hash":"55395e340b5410b4f7245206a162a15d","latRefresh":"2019-07-26T18:09:27.188Z"},{"disasterNumber":1606,"ihProgramDeclared":1,"iaProgramDeclared":1,"paProgramDeclared":1,"hmProgramDeclared":1,"state":"TX","statefips":"48","declarationDate":"2005-09-24T19:58:00.000Z","fyDeclared":"2005","disasterType":"DR","incidentType":"Hurricane","title":"HURRICANE RITA","incidentBeginDate":"2005-09-23T00:00:00.000Z","incidentEndDate":"2005-10-14T16:01:00.000Z","disasterCloseOutDate":null,"declaredCountyArea":"Brazoria (County)","placeCode":"99039","countyfips":"039","hash":"87fa9946169beed39299c5b1b335deff","latRefresh":"2019-10-10T19:56:51.958Z"},{"disasterNumber":1624,"ihProgramDeclared":0,"iaProgramDeclared":0,"paProgramDeclared":1,"hmProgramDeclared":1,"state":"TX","statefips":"48","declarationDate":"2006-01-11T19:13:00.000Z","fyDeclared":"2006","disasterType":"DR","incidentType":"Fire","title":"EXTREME WILDFIRE THREAT","incidentBeginDate":"2005-11-27T00:00:00.000Z","incidentEndDate":"2006-05-14T18:18:00.000Z","disasterCloseOutDate":"2015-10-14T23:59:00.000Z","declaredCountyArea":"Brazoria (County)","placeCode":"99039","countyfips":"039","hash":"273444759fd4fd7d588310e485913958","latRefresh":"2019-07-26T18:09:15.350Z"},{"disasterNumber":3277,"ihProgramDeclared":0,"iaProgramDeclared":0,"paProgramDeclared":1,"hmProgramDeclared":0,"state":"TX","statefips":"48","declarationDate":"2007-08-18T16:30:00.000Z","fyDeclared":"2007","disasterType":"EM","incidentType":"Hurricane","title":"HURRICANE DEAN","incidentBeginDate":"2007-08-17T00:00:00.000Z","incidentEndDate":"2007-09-05T12:00:00.000Z","disasterCloseOutDate":"2012-10-16T00:00:00.000Z","declaredCountyArea":"Brazoria (County)","placeCode":"99039","countyfips":"039","hash":"70eef523bddd8712b109dbec42939195","latRefresh":"2019-07-26T18:09:27.523Z"},{"disasterNumber":3290,"ihProgramDeclared":0,"iaProgramDeclared":0,"paProgramDeclared":1,"hmProgramDeclared":0,"state":"TX","statefips":"48","declarationDate":"2008-08-29T17:30:00.000Z","fyDeclared":"2008","disasterType":"EM","incidentType":"Hurricane","title":"HURRICANE GUSTAV","incidentBeginDate":"2008-08-27T00:00:00.000Z","incidentEndDate":"2008-09-07T00:00:00.000Z","disasterCloseOutDate":"2015-10-15T23:59:00.000Z","declaredCountyArea":"Brazoria (County)","placeCode":"99039","countyfips":"039","hash":"3df0863425429a1823c52c7ef13937fe","latRefresh":"2019-07-26T18:09:29.113Z"},{"disasterNumber":3294,"ihProgramDeclared":0,"iaProgramDeclared":0,"paProgramDeclared":1,"hmProgramDeclared":0,"state":"TX","statefips":"48","declarationDate":"2008-09-10T00:00:00.000Z","fyDeclared":"2008","disasterType":"EM","incidentType":"Hurricane","title":"HURRICANE IKE","incidentBeginDate":"2008-09-07T17:00:00.000Z","incidentEndDate":"2008-09-26T00:00:00.000Z","disasterCloseOutDate":"2015-05-27T00:00:00.000Z","declaredCountyArea":"Brazoria (County)","placeCode":"99039","countyfips":"039","hash":"3986fdd35668f0231aa4e41329f146ce","latRefresh":"2019-07-26T18:09:29.309Z"},{"disasterNumber":1791,"ihProgramDeclared":1,"iaProgramDeclared":1,"paProgramDeclared":1,"hmProgramDeclared":1,"state":"TX","statefips":"48","declarationDate":"2008-09-13T13:30:00.000Z","fyDeclared":"2008","disasterType":"DR","incidentType":"Hurricane","title":"HURRICANE IKE","incidentBeginDate":"2008-09-07T17:00:00.000Z","incidentEndDate":"2008-10-02T00:00:00.000Z","disasterCloseOutDate":null,"declaredCountyArea":"Brazoria (County)","placeCode":"99039","countyfips":"039","hash":"1687d5b29cc4c3adc8bdd766f8cd0749","latRefresh":"2019-10-10T19:56:53.813Z"},{"disasterNumber":4223,"ihProgramDeclared":1,"iaProgramDeclared":0,"paProgramDeclared":1,"hmProgramDeclared":1,"state":"TX","statefips":"48","declarationDate":"2015-05-29T23:02:00.000Z","fyDeclared":"2015","disasterType":"DR","incidentType":"Severe Storm(s)","title":"SEVERE STORMS, TORNADOES, STRAIGHT-LINE WINDS AND FLOODING","incidentBeginDate":"2015-05-04T00:00:00.000Z","incidentEndDate":"2015-06-22T23:59:00.000Z","disasterCloseOutDate":null,"declaredCountyArea":"Brazoria (County)","placeCode":"99039","countyfips":"039","hash":"28017bdc9062910502e6ce80effad583","latRefresh":"2019-10-10T19:57:05.848Z"},{"disasterNumber":4245,"ihProgramDeclared":1,"iaProgramDeclared":0,"paProgramDeclared":0,"hmProgramDeclared":1,"state":"TX","statefips":"48","declarationDate":"2015-11-25T11:00:00.000Z","fyDeclared":"2016","disasterType":"DR","incidentType":"Severe Storm(s)","title":"SEVERE STORMS, TORNADOES, STRAIGHT-LINE WINDS, AND FLOODING","incidentBeginDate":"2015-10-22T00:00:00.000Z","incidentEndDate":"2015-10-31T00:00:00.000Z","disasterCloseOutDate":null,"declaredCountyArea":"Brazoria (County)","placeCode":"99039","countyfips":"039","hash":"4a81611ca119bbb94fd3e65e9bae2011","latRefresh":"2019-10-10T19:57:06.301Z"},{"disasterNumber":4272,"ihProgramDeclared":1,"iaProgramDeclared":0,"paProgramDeclared":1,"hmProgramDeclared":1,"state":"TX","statefips":"48","declarationDate":"2016-06-11T13:23:00.000Z","fyDeclared":"2016","disasterType":"DR","incidentType":"Flood","title":"SEVERE STORMS AND FLOODING","incidentBeginDate":"2016-05-22T00:00:00.000Z","incidentEndDate":"2016-06-24T23:59:00.000Z","disasterCloseOutDate":null,"declaredCountyArea":"Brazoria (County)","placeCode":"99039","countyfips":"039","hash":"de73e2b929531a8be926af77c272b0b8","latRefresh":"2019-10-10T19:57:06.736Z"},{"disasterNumber":4332,"ihProgramDeclared":1,"iaProgramDeclared":0,"paProgramDeclared":1,"hmProgramDeclared":1,"state":"TX","statefips":"48","declarationDate":"2017-08-25T21:35:00.000Z","fyDeclared":"2017","disasterType":"DR","incidentType":"Hurricane","title":"HURRICANE HARVEY","incidentBeginDate":"2017-08-23T08:09:52.000Z","incidentEndDate":"2017-09-15T23:59:00.000Z","disasterCloseOutDate":null,"declaredCountyArea":"Brazoria (County)","placeCode":"99039","countyfips":"039","hash":"5a6a3da398366bbeca251e0a52d949e2","latRefresh":"2019-10-10T19:57:07.421Z"}],"storms":{"Tornado":{"1950":1,"1956":1,"1957":2,"1958":1,"1959":1,"1963":1,"1966":1,"1967":2,"1968":2,"1970":1,"1972":3,"1973":2,"1974":1,"1975":1,"1976":3,"1979":1,"1980":1,"1981":4,"1982":2,"1983":9,"1989":2,"1991":2,"1992":3,"1993":3,"1994":1,"1997":3,"1998":2,"2007":1,"2012":4,"2015":9,"2017":8,"2018":2},"Hail":{"1960":1,"1963":1,"1965":1,"1966":1,"1973":1,"1979":1,"1981":2,"1985":3,"1986":1,"1987":2,"1989":1,"1990":2,"1992":2,"1993":13,"1994":2,"1995":10,"1996":3,"1997":10,"1998":5,"2007":3,"2008":1,"2009":1,"2011":1,"2012":8,"2013":4,"2015":11,"2016":3,"2018":3,"2019":2},"Thunderstorm Wind":{"1965":1,"1973":1,"1974":1,"1975":3,"1977":1,"1978":1,"1979":2,"1980":1,"1981":2,"1982":1,"1983":2,"1984":2,"1985":2,"1986":1,"1987":6,"1990":2,"1991":2,"1992":3,"1993":4,"1994":4,"1995":3,"1996":2,"1997":14,"1998":10,"2008":3,"2009":1,"2010":3,"2011":1,"2012":4,"2013":4,"2015":15,"2016":14,"2018":8,"2019":2},"Flash Flood":{"1997":5,"1998":6,"2007":3,"2009":1,"2010":3,"2015":6,"2016":1,"2017":8},"Lightning":{"1997":1,"2007":5,"2008":2,"2014":5,"2015":1,"2016":1,"2017":1},"Funnel Cloud":{"2007":3,"2008":2,"2010":1,"2012":2,"2014":5,"2015":3,"2017":2,"2018":4,"2019":1},"Heavy Rain":{"2013":1,"2017":1}},"bvis":[{"year":2012,"county":48039,"estab_total":4993,"estab_vuln_total":433,"mm_employees":75950,"emp_vuln_total":8320},{"year":2013,"county":48039,"estab_total":5122,"estab_vuln_total":446,"mm_employees":80192,"emp_vuln_total":8349},{"year":2014,"county":48039,"estab_total":5153,"estab_vuln_total":457,"mm_employees":83160,"emp_vuln_total":10044},{"year":2015,"county":48039,"estab_total":5355,"estab_vuln_total":482,"mm_employees":86188,"emp_vuln_total":11129},{"year":2016,"county":48039,"estab_total":5518,"estab_vuln_total":501,"mm_employees":87449,"emp_vuln_total":11346},{"year":2017,"county":48039,"estab_total":5667,"estab_vuln_total":483,"mm_employees":90444,"emp_vuln_total":11543}]}