{"demo":[{"group":312,"value":2794},{"group":313,"value":8493},{"group":314,"value":3443},{"group":315,"value":10775},{"group":316,"value":10379},{"group":317,"value":4408}],"population":40292,"cutter":{"SOC":{"id":"1","name":"Social Resilience","sources":[{"id":"11","name":"Educational Equity","states":0.041,"us":0.074,"county":0.0466},{"id":"12","name":"Age","states":0.732,"us":0.721,"county":0.8654},{"id":"13","name":"Transportation Access","states":0.931,"us":0.916,"county":0.9658},{"id":"14","name":"Communication Capacity","states":0.884,"us":0.873,"county":0.8811},{"id":"15","name":"Language Capacity","states":0.722,"us":0.903,"county":0.8009},{"id":"16","name":"Special Needs","states":0.653,"us":0.657,"county":0.7349},{"id":"17","name":"Health Coverage","states":0.602,"us":0.762,"county":0.6896}],"aggregate":{"us":0.700857142857143,"state":0.6521428571428572,"county":0.7120428571428571}},"ECON":{"id":"2","name":"Economic Resilience","sources":[{"id":"21","name":"Housing Capital","states":0.605,"us":0.641,"county":0.8384},{"id":"22","name":"Employment","states":0.458,"us":0.489,"county":0.4626},{"id":"23","name":"Income and Equality (GINI Coeffecient)","states":0.549,"us":0.598,"county":0.6828},{"id":"24","name":"Single Sector Employment Dependence","states":0.935,"us":0.982,"county":0.9604},{"id":"25","name":"Employment (Female)","states":0.48,"us":0.536,"county":0.4021},{"id":"26","name":"Business Size","states":0.005,"us":0.007,"county":0.0214},{"id":"27","name":"Health Access","states":0.118,"us":0.125,"county":0.0374}],"aggregate":{"us":0.4825714285714286,"state":0.45,"county":0.48644285714285707}},"INST":{"id":"3","name":"Institutional Resilience","sources":[{"id":"31","name":"Mitigation - Hazard Mitigation Plan Coverage","us":null,"county":null},{"id":"32","name":"Flood Coverage","states":0.02,"us":0.014,"county":0.1161},{"id":"33","name":"Municipal Services","us":null,"county":null},{"id":"34","name":"Mitigation - CRS Flood","us":null,"county":null},{"id":"35","name":"Political Fragmentation","us":null,"county":null},{"id":"36","name":"Previous Disaster Experience","states":0.205,"us":0.211,"county":0.2},{"id":"37","name":"Mitigation and Social Connectivity","us":null,"county":null},{"id":"38","name":"Mitigation - Storm Ready Communities","us":null,"county":null}],"aggregate":{"us":0.1125,"state":0.11249999999999999,"county":0.15805}},"IHFR":{"id":"4","name":"Infrastructure Resilience","sources":[{"id":"41","name":"Housing Type","states":0.754,"us":0.797,"county":0.6744},{"id":"42","name":"Shelter Capacity","states":0.17,"us":0.184,"county":0.1617},{"id":"43","name":"Medical Capacity","states":0.005,"us":0.003,"county":0.005},{"id":"44","name":"Access/Evacuation Potential","states":0.006,"us":0.009,"county":0.0057},{"id":"45","name":"Housing Age","states":0.461,"us":0.459,"county":0.5293},{"id":"46","name":"Sheltering Need","states":0.001,"us":0.002,"county":0.0009},{"id":"47","name":"Recovery (Schools)","states":0.001,"us":0.003,"county":0.0002}],"aggregate":{"us":0.20814285714285716,"state":0.1997142857142857,"county":0.19674285714285714}},"COMM":{"id":"5","name":"Community Capital","sources":[{"id":"51","name":"Place Attachment - Migration","states":0.818,"us":0.912,"county":0.7998},{"id":"52","name":"Place Attachment - Born","states":0.72,"us":0.671,"county":0.7314},{"id":"53","name":"Political Engagement","states":0.313,"us":0.404,"county":0.3971},{"id":"54","name":"Social Capital - Religion","states":0.202,"us":0.186,"county":0.1069},{"id":"55","name":"Social Capital - Civic Involvement","states":0.055,"us":0.089,"county":0},{"id":"56","name":"Social Capital - Advocacy","states":0.01,"us":0.016,"county":0},{"id":"57","name":"Innovation","states":0.032,"us":0.034,"county":0.0361}],"aggregate":{"us":0.33028571428571424,"state":0.3071428571428571,"county":0.2959}},"FLOR":{"id":"100","name":"Special/Custom","sources":[{"id":"101","name":"Business Vulnerability","us":null,"county":null},{"id":"102","name":"Flood Zone","us":null,"county":null},{"id":"103","name":"Commuting","us":null,"county":null},{"id":"104","name":"Housing Construction","us":null,"county":null},{"id":"105","name":"Second Stage Businesses","states":0.507,"us":0.487,"county":0.6503},{"id":"106","name":"Households with Broadband Access","states":0.605,"us":0.645,"county":0.7788}],"aggregate":{"us":0.5660000000000001,"state":0.556,"county":0.71455}}},"statefips":"48","countyfips":"071","county":"Chambers","state":"Texas","area":597.137,"eda2018":[{"source_file":"2018DisasterSupp","eda_regional_office":"Austin","fain":"87905237","grantee_name":"Gulf Coast Economic Development District","grantee_city":"Houston","grantee_state":"Texas","project_state":"Texas","grant_purpose":"Disaster Recovery Coordinator","grant_award_date":"2018-06-18T00:00:00.000Z","award_amount":240000,"total_project_funding":300000,"statewide":0,"counties":[{"county":"Austin","stateadd":"TX","statefips":"48","countyfips":"015"},{"county":"Brazoria","stateadd":"TX","statefips":"48","countyfips":"039"},{"county":"Chambers","stateadd":"TX","statefips":"48","countyfips":"071"},{"county":"Colorado","stateadd":"TX","statefips":"48","countyfips":"089"},{"county":"Fort Bend","stateadd":"TX","statefips":"48","countyfips":"157"},{"county":"Galveston","stateadd":"TX","statefips":"48","countyfips":"167"},{"county":"Harris","stateadd":"TX","statefips":"48","countyfips":"201"},{"county":"Liberty","stateadd":"TX","statefips":"48","countyfips":"291"},{"county":"Matagorda","stateadd":"TX","statefips":"48","countyfips":"321"},{"county":"Montgomery","stateadd":"TX","statefips":"48","countyfips":"339"},{"county":"Walker","stateadd":"TX","statefips":"48","countyfips":"471"},{"county":"Waller","stateadd":"TX","statefips":"48","countyfips":"473"},{"county":"Wharton","stateadd":"TX","statefips":"48","countyfips":"481"}],"fema_id":"4332","lat":29.77709639999999,"lon":-95.6194773},{"source_file":"2018DisasterSupp","eda_regional_office":"Austin","fain":"87905268","grantee_name":"Hidden Star Resources","grantee_city":"Austin","grantee_state":"Texas","project_state":"Texas","grant_purpose":"Technical Assistance Program","grant_award_date":"2018-09-18T00:00:00.000Z","award_amount":600000,"total_project_funding":750000,"statewide":0,"counties":[{"county":"Austin","stateadd":"TX","statefips":"48","countyfips":"015"},{"county":"Brazoria","stateadd":"TX","statefips":"48","countyfips":"039"},{"county":"Chambers","stateadd":"TX","statefips":"48","countyfips":"071"},{"county":"Colorado","stateadd":"TX","statefips":"48","countyfips":"089"},{"county":"Fort Bend","stateadd":"TX","statefips":"48","countyfips":"157"},{"county":"Galveston","stateadd":"TX","statefips":"48","countyfips":"167"},{"county":"Harris","stateadd":"TX","statefips":"48","countyfips":"201"},{"county":"Liberty","stateadd":"TX","statefips":"48","countyfips":"291"},{"county":"Matagorda","stateadd":"TX","statefips":"48","countyfips":"321"},{"county":"Montgomery","stateadd":"TX","statefips":"48","countyfips":"339"},{"county":"Walker","stateadd":"TX","statefips":"48","countyfips":"471"},{"county":"Waller","stateadd":"TX","statefips":"48","countyfips":"473"},{"county":"Wharton","stateadd":"TX","statefips":"48","countyfips":"481"}],"fema_id":"4332","lat":30.2719882,"lon":-97.8165281},{"source_file":"2018DisasterSupp","eda_regional_office":"Austin","fain":"87905274","grantee_name":"TruFund Financial Services, Inc","grantee_city":"New York","grantee_state":"New York","project_state":"Texas","grant_purpose":"Technical Assistance Program","grant_award_date":"2019-04-01T00:00:00.000Z","award_amount":1100000,"total_project_funding":1400000,"statewide":0,"counties":[{"county":"Austin","stateadd":"TX","statefips":"48","countyfips":"015"},{"county":"Brazoria","stateadd":"TX","statefips":"48","countyfips":"039"},{"county":"Chambers","stateadd":"TX","statefips":"48","countyfips":"071"},{"county":"Ft. Bend","stateadd":"TX","statefips":"48","countyfips":"157"},{"county":"Galveston","stateadd":"TX","statefips":"48","countyfips":"167"},{"county":"Harris","stateadd":"TX","statefips":"48","countyfips":"201"},{"county":"Liberty","stateadd":"TX","statefips":"48","countyfips":"291"},{"county":"Montgomery","stateadd":"TX","statefips":"48","countyfips":"339"},{"county":"Waller","stateadd":"TX","statefips":"48","countyfips":"473"}],"fema_id":"4332","lat":40.7514177,"lon":-73.98518299999999},{"source_file":"2018DisasterSupp","eda_regional_office":"Austin","fain":"87905280","grantee_name":"Texas Tech University","grantee_city":"Lubbock","grantee_state":"Texas","project_state":"Texas","grant_purpose":"Disaster Recovery and Resiliency Plan","grant_award_date":"2019-03-21T00:00:00.000Z","award_amount":750000,"total_project_funding":937591,"statewide":0,"counties":[{"county":"Aransas","stateadd":"TX","statefips":"48","countyfips":"007"},{"county":"Austin","stateadd":"TX","statefips":"48","countyfips":"015"},{"county":"Bastrop","stateadd":"TX","statefips":"48","countyfips":"021"},{"county":"Bee","stateadd":"TX","statefips":"48","countyfips":"025"},{"county":"Brazoria","stateadd":"TX","statefips":"48","countyfips":"039"},{"county":"Caldwell","stateadd":"TX","statefips":"48","countyfips":"055"},{"county":"Calhoun","stateadd":"TX","statefips":"48","countyfips":"057"},{"county":"Chambers","stateadd":"TX","statefips":"48","countyfips":"071"},{"county":"Colorado","stateadd":"TX","statefips":"48","countyfips":"089"},{"county":"DeWitt","stateadd":"TX"},{"county":"Fayette","stateadd":"TX","statefips":"48","countyfips":"149"},{"county":"Fort Bend","stateadd":"TX","statefips":"48","countyfips":"157"},{"county":"Galveston","stateadd":"TX","statefips":"48","countyfips":"167"},{"county":"Goliad","stateadd":"TX","statefips":"48","countyfips":"175"},{"county":"Gonzales","stateadd":"TX","statefips":"48","countyfips":"177"},{"county":"Grimes","stateadd":"TX","statefips":"48","countyfips":"185"},{"county":"Hardin","stateadd":"TX","statefips":"48","countyfips":"199"},{"county":"Harris","stateadd":"TX","statefips":"48","countyfips":"201"},{"county":"Jackson","stateadd":"TX","statefips":"48","countyfips":"239"},{"county":"Jasper","stateadd":"TX","statefips":"48","countyfips":"241"},{"county":"Jefferson","stateadd":"TX","statefips":"48","countyfips":"245"},{"county":"Karnes","stateadd":"TX","statefips":"48","countyfips":"255"},{"county":"Kleberg","stateadd":"TX","statefips":"48","countyfips":"273"},{"county":"Lavaca","stateadd":"TX","statefips":"48","countyfips":"285"},{"county":"Lee","stateadd":"TX","statefips":"48","countyfips":"287"},{"county":"Liberty","stateadd":"TX","statefips":"48","countyfips":"291"},{"county":"Matagorda","stateadd":"TX","statefips":"48","countyfips":"321"},{"county":"Montgomery","stateadd":"TX","statefips":"48","countyfips":"339"},{"county":"Newton","stateadd":"TX","statefips":"48","countyfips":"351"},{"county":"Nueces","stateadd":"TX","statefips":"48","countyfips":"355"},{"county":"Orange","stateadd":"TX","statefips":"48","countyfips":"361"},{"county":"Polk","stateadd":"TX","statefips":"48","countyfips":"373"},{"county":"Refugio","stateadd":"TX","statefips":"48","countyfips":"391"},{"county":"Sabine","stateadd":"TX","statefips":"48","countyfips":"403"},{"county":"San Jacinto","stateadd":"TX","statefips":"48","countyfips":"407"},{"county":"San Patricio","stateadd":"TX","statefips":"48","countyfips":"409"},{"county":"Tyler","stateadd":"TX","statefips":"48","countyfips":"457"},{"county":"Victoria","stateadd":"TX","statefips":"48","countyfips":"469"},{"county":"Walker","stateadd":"TX","statefips":"48","countyfips":"471"},{"county":"Waller","stateadd":"TX","statefips":"48","countyfips":"473"},{"county":"Wharton","stateadd":"TX","statefips":"48","countyfips":"481"}],"fema_id":"4332","lat":33.5842591,"lon":-101.8782822},{"source_file":"2018DisasterSupp","eda_regional_office":"Austin","fain":"87905296","grantee_name":"City of Anahuac","grantee_city":"Anahuac","grantee_state":"Texas","project_state":"Texas","grant_purpose":"Infrastructure","grant_award_date":"2019-07-17T00:00:00.000Z","award_amount":5000000,"total_project_funding":6250000,"statewide":0,"counties":[{"county":"Chambers","stateadd":"TX","statefips":"48","countyfips":"071"}],"fema_id":"4332","lat":29.77320199999999,"lon":-94.68184690000001}],"disasters":[{"disasterNumber":595,"ihProgramDeclared":0,"iaProgramDeclared":1,"paProgramDeclared":0,"hmProgramDeclared":0,"state":"TX","statefips":"48","declarationDate":"1979-07-28T00:00:00.000Z","fyDeclared":"1979","disasterType":"DR","incidentType":"Flood","title":"STORMS & FLASH FLOODS","incidentBeginDate":"1979-07-28T00:00:00.000Z","incidentEndDate":"1979-07-28T00:00:00.000Z","disasterCloseOutDate":"1983-10-31T00:00:00.000Z","declaredCountyArea":"Chambers (County)","placeCode":"99071","countyfips":"071","hash":"92e4ef7f5ecf690295a4ff436294454b","latRefresh":"2019-07-26T18:09:02.019Z"},{"disasterNumber":689,"ihProgramDeclared":0,"iaProgramDeclared":1,"paProgramDeclared":1,"hmProgramDeclared":0,"state":"TX","statefips":"48","declarationDate":"1983-08-19T00:00:00.000Z","fyDeclared":"1983","disasterType":"DR","incidentType":"Hurricane","title":"HURRICANE ALICIA","incidentBeginDate":"1983-08-18T00:00:00.000Z","incidentEndDate":"1983-08-20T00:00:00.000Z","disasterCloseOutDate":"1988-10-05T00:00:00.000Z","declaredCountyArea":"Chambers (County)","placeCode":"99071","countyfips":"071","hash":"ba42a73720315fb086d084deb5bfc3ae","latRefresh":"2019-07-26T18:09:02.522Z"},{"disasterNumber":1041,"ihProgramDeclared":0,"iaProgramDeclared":1,"paProgramDeclared":0,"hmProgramDeclared":0,"state":"TX","statefips":"48","declarationDate":"1994-10-18T00:00:00.000Z","fyDeclared":"1995","disasterType":"DR","incidentType":"Flood","title":"SEVERE THUNDERSTORMS AND FLOODING","incidentBeginDate":"1994-10-14T00:00:00.000Z","incidentEndDate":"1994-11-08T00:00:00.000Z","disasterCloseOutDate":"2005-08-25T00:00:00.000Z","declaredCountyArea":"Chambers (County)","placeCode":"99071","countyfips":"071","hash":"13a3fd29ef258d50b15ce6f2b3154b79","latRefresh":"2019-07-26T18:09:06.046Z"},{"disasterNumber":1239,"ihProgramDeclared":0,"iaProgramDeclared":0,"paProgramDeclared":0,"hmProgramDeclared":1,"state":"TX","statefips":"48","declarationDate":"1998-08-26T15:50:08.000Z","fyDeclared":"1998","disasterType":"DR","incidentType":"Severe Storm(s)","title":"TROPICAL STORM CHARLEY","incidentBeginDate":"1998-08-22T13:55:00.000Z","incidentEndDate":"1998-08-31T12:00:00.000Z","disasterCloseOutDate":"2006-03-24T00:00:00.000Z","declaredCountyArea":"Chambers (County)","placeCode":"99071","countyfips":"071","hash":"1b802ae5431375510b3d711994a15556","latRefresh":"2019-07-26T18:09:09.217Z"},{"disasterNumber":1239,"ihProgramDeclared":0,"iaProgramDeclared":0,"paProgramDeclared":0,"hmProgramDeclared":1,"state":"TX","statefips":"48","declarationDate":"1998-08-26T15:50:08.000Z","fyDeclared":"1998","disasterType":"DR","incidentType":"Severe Storm(s)","title":"TROPICAL STORM CHARLEY","incidentBeginDate":"1998-08-22T13:55:00.000Z","incidentEndDate":"1998-08-31T12:00:00.000Z","disasterCloseOutDate":"2006-03-24T00:00:00.000Z","declaredCountyArea":"Statewide","placeCode":"0","countyfips":"000","hash":"80f00db491b442add7b18acc938b842a","latRefresh":"2019-07-26T18:09:09.350Z"},{"disasterNumber":3142,"ihProgramDeclared":0,"iaProgramDeclared":0,"paProgramDeclared":1,"hmProgramDeclared":0,"state":"TX","statefips":"48","declarationDate":"1999-09-01T16:50:00.000Z","fyDeclared":"1999","disasterType":"EM","incidentType":"Fire","title":"EXTREME FIRE HAZARDS","incidentBeginDate":"1999-08-01T12:00:00.000Z","incidentEndDate":"1999-12-10T00:00:00.000Z","disasterCloseOutDate":"2002-07-09T00:00:00.000Z","declaredCountyArea":"Chambers (County)","placeCode":"99071","countyfips":"071","hash":"a05c94cbd7d097748fef5484ba9fbec3","latRefresh":"2019-07-26T18:09:23.555Z"},{"disasterNumber":1379,"ihProgramDeclared":0,"iaProgramDeclared":1,"paProgramDeclared":1,"hmProgramDeclared":1,"state":"TX","statefips":"48","declarationDate":"2001-06-09T11:00:00.000Z","fyDeclared":"2001","disasterType":"DR","incidentType":"Coastal Storm","title":"TX-TROPICAL STORM ALLISON-06-06-2001","incidentBeginDate":"2001-06-05T16:30:00.000Z","incidentEndDate":"2001-06-20T00:00:00.000Z","disasterCloseOutDate":null,"declaredCountyArea":"Chambers (County)","placeCode":"99071","countyfips":"071","hash":"cec0fc18f4be1a010bcb463384487661","latRefresh":"2019-10-10T19:56:49.325Z"},{"disasterNumber":3171,"ihProgramDeclared":0,"iaProgramDeclared":0,"paProgramDeclared":1,"hmProgramDeclared":0,"state":"TX","statefips":"48","declarationDate":"2003-02-01T00:00:00.000Z","fyDeclared":"2003","disasterType":"EM","incidentType":"Other","title":"LOSS OF THE SPACE SHUTTLE COLUMBIA","incidentBeginDate":"2003-02-01T09:35:50.000Z","incidentEndDate":"2003-02-01T00:00:00.000Z","disasterCloseOutDate":"2010-08-23T00:00:00.000Z","declaredCountyArea":"Chambers (County)","placeCode":"99071","countyfips":"071","hash":"6b5750fe505f0df454d110638bc143dc","latRefresh":"2019-07-26T18:09:24.223Z"},{"disasterNumber":3216,"ihProgramDeclared":0,"iaProgramDeclared":0,"paProgramDeclared":1,"hmProgramDeclared":0,"state":"TX","statefips":"48","declarationDate":"2005-09-02T12:51:00.000Z","fyDeclared":"2005","disasterType":"EM","incidentType":"Hurricane","title":"HURRICANE KATRINA EVACUATION","incidentBeginDate":"2005-08-29T00:00:00.000Z","incidentEndDate":"2005-10-01T08:55:00.000Z","disasterCloseOutDate":"2014-07-01T00:00:00.000Z","declaredCountyArea":"Chambers (County)","placeCode":"99071","countyfips":"071","hash":"966fce7d415618891eb74b9ee6e8fb5a","latRefresh":"2019-07-26T18:09:25.034Z"},{"disasterNumber":3261,"ihProgramDeclared":0,"iaProgramDeclared":0,"paProgramDeclared":0,"hmProgramDeclared":0,"state":"TX","statefips":"48","declarationDate":"2005-09-21T19:07:00.000Z","fyDeclared":"2005","disasterType":"EM","incidentType":"Hurricane","title":"HURRICANE RITA","incidentBeginDate":"2005-09-20T07:24:57.000Z","incidentEndDate":"2005-10-14T09:33:00.000Z","disasterCloseOutDate":"2013-08-12T00:00:00.000Z","declaredCountyArea":"Statewide","placeCode":"0","countyfips":"000","hash":"104e545ade544f715fd412231276c0aa","latRefresh":"2019-07-26T18:09:27.180Z"},{"disasterNumber":3261,"ihProgramDeclared":0,"iaProgramDeclared":0,"paProgramDeclared":1,"hmProgramDeclared":0,"state":"TX","statefips":"48","declarationDate":"2005-09-21T19:07:00.000Z","fyDeclared":"2005","disasterType":"EM","incidentType":"Hurricane","title":"HURRICANE RITA","incidentBeginDate":"2005-09-20T07:24:57.000Z","incidentEndDate":"2005-10-14T09:33:00.000Z","disasterCloseOutDate":"2013-08-12T00:00:00.000Z","declaredCountyArea":"Chambers (County)","placeCode":"99071","countyfips":"071","hash":"3726f78ecd37cd47b0ec09468def5361","latRefresh":"2019-07-26T18:09:27.145Z"},{"disasterNumber":1606,"ihProgramDeclared":1,"iaProgramDeclared":1,"paProgramDeclared":1,"hmProgramDeclared":1,"state":"TX","statefips":"48","declarationDate":"2005-09-24T19:58:00.000Z","fyDeclared":"2005","disasterType":"DR","incidentType":"Hurricane","title":"HURRICANE RITA","incidentBeginDate":"2005-09-23T00:00:00.000Z","incidentEndDate":"2005-10-14T16:01:00.000Z","disasterCloseOutDate":null,"declaredCountyArea":"Chambers (County)","placeCode":"99071","countyfips":"071","hash":"a75cd138670e2b79d4b71094d71da89d","latRefresh":"2019-10-10T19:56:51.950Z"},{"disasterNumber":1624,"ihProgramDeclared":0,"iaProgramDeclared":0,"paProgramDeclared":1,"hmProgramDeclared":1,"state":"TX","statefips":"48","declarationDate":"2006-01-11T19:13:00.000Z","fyDeclared":"2006","disasterType":"DR","incidentType":"Fire","title":"EXTREME WILDFIRE THREAT","incidentBeginDate":"2005-11-27T00:00:00.000Z","incidentEndDate":"2006-05-14T18:18:00.000Z","disasterCloseOutDate":"2015-10-14T23:59:00.000Z","declaredCountyArea":"Chambers (County)","placeCode":"99071","countyfips":"071","hash":"41fd004b65734412e9fefe0bd2a1d7a5","latRefresh":"2019-07-26T18:09:15.353Z"},{"disasterNumber":3277,"ihProgramDeclared":0,"iaProgramDeclared":0,"paProgramDeclared":1,"hmProgramDeclared":0,"state":"TX","statefips":"48","declarationDate":"2007-08-18T16:30:00.000Z","fyDeclared":"2007","disasterType":"EM","incidentType":"Hurricane","title":"HURRICANE DEAN","incidentBeginDate":"2007-08-17T00:00:00.000Z","incidentEndDate":"2007-09-05T12:00:00.000Z","disasterCloseOutDate":"2012-10-16T00:00:00.000Z","declaredCountyArea":"Chambers (County)","placeCode":"99071","countyfips":"071","hash":"a65df12079e7e06a586b40839e7259fb","latRefresh":"2019-07-26T18:09:27.519Z"},{"disasterNumber":3290,"ihProgramDeclared":0,"iaProgramDeclared":0,"paProgramDeclared":1,"hmProgramDeclared":0,"state":"TX","statefips":"48","declarationDate":"2008-08-29T17:30:00.000Z","fyDeclared":"2008","disasterType":"EM","incidentType":"Hurricane","title":"HURRICANE GUSTAV","incidentBeginDate":"2008-08-27T00:00:00.000Z","incidentEndDate":"2008-09-07T00:00:00.000Z","disasterCloseOutDate":"2015-10-15T23:59:00.000Z","declaredCountyArea":"Chambers (County)","placeCode":"99071","countyfips":"071","hash":"49cec6e069240fe97e4af12ca6c4291c","latRefresh":"2019-07-26T18:09:29.114Z"},{"disasterNumber":3294,"ihProgramDeclared":0,"iaProgramDeclared":0,"paProgramDeclared":1,"hmProgramDeclared":0,"state":"TX","statefips":"48","declarationDate":"2008-09-10T00:00:00.000Z","fyDeclared":"2008","disasterType":"EM","incidentType":"Hurricane","title":"HURRICANE IKE","incidentBeginDate":"2008-09-07T17:00:00.000Z","incidentEndDate":"2008-09-26T00:00:00.000Z","disasterCloseOutDate":"2015-05-27T00:00:00.000Z","declaredCountyArea":"Chambers (County)","placeCode":"99071","countyfips":"071","hash":"c6cc3b8a2d2d967601e36644ebb32960","latRefresh":"2019-07-26T18:09:29.415Z"},{"disasterNumber":1791,"ihProgramDeclared":1,"iaProgramDeclared":1,"paProgramDeclared":1,"hmProgramDeclared":1,"state":"TX","statefips":"48","declarationDate":"2008-09-13T13:30:00.000Z","fyDeclared":"2008","disasterType":"DR","incidentType":"Hurricane","title":"HURRICANE IKE","incidentBeginDate":"2008-09-07T17:00:00.000Z","incidentEndDate":"2008-10-02T00:00:00.000Z","disasterCloseOutDate":null,"declaredCountyArea":"Chambers (County)","placeCode":"99071","countyfips":"071","hash":"850d6d00cb3c73f0ddb33731f334d09d","latRefresh":"2019-10-10T19:56:53.815Z"},{"disasterNumber":4332,"ihProgramDeclared":1,"iaProgramDeclared":0,"paProgramDeclared":1,"hmProgramDeclared":1,"state":"TX","statefips":"48","declarationDate":"2017-08-25T21:35:00.000Z","fyDeclared":"2017","disasterType":"DR","incidentType":"Hurricane","title":"HURRICANE HARVEY","incidentBeginDate":"2017-08-23T08:09:52.000Z","incidentEndDate":"2017-09-15T23:59:00.000Z","disasterCloseOutDate":"","declaredCountyArea":"Chambers (County)","placeCode":"99071","countyfips":"071","hash":"e465063e35245319fa68d6126802aa09","latRefresh":"2019-10-10T19:57:07.421Z"},{"disasterNumber":4466,"ihProgramDeclared":1,"iaProgramDeclared":0,"paProgramDeclared":0,"hmProgramDeclared":1,"state":"TX","statefips":"48","declarationDate":"2019-10-04T14:25:00.000Z","fyDeclared":"2020","disasterType":"DR","incidentType":"Flood","title":"TROPICAL STORM IMELDA","incidentBeginDate":"2019-09-17T08:00:00.000Z","incidentEndDate":"2019-09-23T08:00:00.000Z","disasterCloseOutDate":"","declaredCountyArea":"Chambers (County)","placeCode":"99071","countyfips":"071","hash":"449a91a86a8db73bd3a4a6432b6bca42","latRefresh":"2019-10-10T19:57:09.288Z"},{"disasterNumber":3458,"ihProgramDeclared":0,"iaProgramDeclared":0,"paProgramDeclared":1,"hmProgramDeclared":0,"state":"TX","statefips":"48","declarationDate":"2020-03-13T16:00:00.000Z","fyDeclared":"2020","disasterType":"EM","incidentType":"Biological","title":"COVID-19","incidentBeginDate":"2020-01-20T14:00:00.000Z","incidentEndDate":"","disasterCloseOutDate":"","declaredCountyArea":"Chambers (County)","placeCode":"99071","countyfips":"071","hash":"3d6324fca50a7dc305ba80379e833f58","latRefresh":"2020-03-16T15:20:58.745Z"},{"disasterNumber":4485,"ihProgramDeclared":1,"iaProgramDeclared":0,"paProgramDeclared":1,"hmProgramDeclared":0,"state":"TX","statefips":"48","declarationDate":"2020-03-25T12:10:00.000Z","fyDeclared":"2020","disasterType":"DR","incidentType":"Biological","title":"COVID-19 PANDEMIC","incidentBeginDate":"2020-01-20T14:00:00.000Z","incidentEndDate":"","disasterCloseOutDate":"","declaredCountyArea":"Chambers (County)","placeCode":"99071","countyfips":"071","hash":"d4af5451e5a652ccae33433b06626671","latRefresh":"2020-03-25T17:40:56.863Z"}],"storms":{"Tornado":{"1954":1,"1959":1,"1961":1,"1962":1,"1969":1,"1971":1,"1973":1,"1974":2,"1975":1,"1980":1,"1981":3,"1982":1,"1983":2,"1989":1,"1992":1,"1993":2,"1994":1,"2012":1,"2017":1,"2018":1},"Thunderstorm Wind":{"1959":1,"1963":1,"1981":7,"1983":1,"1986":3,"1987":1,"1988":1,"1990":4,"1991":2,"1992":4,"1994":1,"1995":5,"1997":10,"1998":4,"2008":1,"2011":1,"2013":4,"2018":2},"Hail":{"1963":1,"1967":1,"1968":1,"1980":2,"1981":1,"1983":4,"1987":1,"1989":1,"1991":2,"1992":2,"1993":1,"1994":2,"1995":5,"1996":1,"1997":5,"1998":8,"2008":1,"2011":1,"2015":1},"Flash Flood":{"1996":1,"1997":2,"1998":8,"2007":1,"2008":1,"2009":1,"2015":1,"2016":2,"2017":9},"Waterspout":{"1996":1},"Coastal Flood":{"1996":1},"Funnel Cloud":{"2007":2,"2011":1,"2012":2,"2013":1,"2018":1},"Lightning":{"2010":1,"2016":1,"2017":1}},"bvis":[{"year":2012,"county":48071,"estab_total":535,"estab_vuln_total":53,"mm_employees":9684,"emp_vuln_total":1618},{"year":2013,"county":48071,"estab_total":544,"estab_vuln_total":53,"mm_employees":10370,"emp_vuln_total":1847},{"year":2014,"county":48071,"estab_total":558,"estab_vuln_total":57,"mm_employees":10174,"emp_vuln_total":1958},{"year":2015,"county":48071,"estab_total":584,"estab_vuln_total":61,"mm_employees":11356,"emp_vuln_total":2170},{"year":2016,"county":48071,"estab_total":612,"estab_vuln_total":67,"mm_employees":12115,"emp_vuln_total":2418},{"year":2017,"county":48071,"estab_total":660,"estab_vuln_total":69,"mm_employees":12327,"emp_vuln_total":2473}]}